<?xml version="1.0" ?>
<kml xmlns="http://www.opengis.net/kml/2.2">
  <Document>
    <Placemark>
      <name>METROPOLITAN AREA</name>
      <description>Date/Time: 1795-12-04 14:00:00
Details:  DATE AS START OF DECEMBER,ICE LASTED 2 DAYS,GRAIN DEST.,TREES DOWN,BRANCHES EVERYWHERE,ICE 6-8&quot; LONGx1&quot; THICK&quot;</description>
      <Point>
        <coordinates>151.2167,-33.8834,0</coordinates>
      </Point>
    </Placemark>
    <Placemark>
      <name>EMU PLAINS</name>
      <description>Date/Time: 1802-10-07 06:00:00
Details:  TIME GIVEN AS AFTERNOON,TORNADO,IMMENSE MASSES OF BLACK CLOUDS,HORRIBLE NOISE,LASTED 3/4 HR,CAME OFF BLUE MTNS</description>
      <Point>
        <coordinates>150.6833,-33.7500,0</coordinates>
      </Point>
    </Placemark>
    <Placemark>
      <name>PARRAMATTA</name>
      <description>Date/Time: 1802-11-05 03:00:00
Details:  HEAVY SQUALL WITH THUNDER, WINDS VEERED ALL AROUND COMPASS</description>
      <Point>
        <coordinates>150.0167,-33.8167,0</coordinates>
      </Point>
    </Placemark>
    <Placemark>
      <name>WINDSOR</name>
      <description>Date/Time: 1826-10-20 05:30:00
Details: TORNADO</description>
      <Point>
        <coordinates>150.8167,-33.6167,0</coordinates>
      </Point>
    </Placemark>
    <Placemark>
      <name>PARRAMATTA</name>
      <description>Date/Time: 1839-11-14 04:30:00
Details:  AT 1515 (?) PIGEON EGG SIZE HAIL KILLED BIRDS, BROKE WINDOWS &amp; SMALL BRANCHES OFF TREES, GYRATING WIND</description>
      <Point>
        <coordinates>151.0167,-33.8167,0</coordinates>
      </Point>
    </Placemark>
    <Placemark>
      <name>PARRAMATTA</name>
      <description>Date/Time: 1840-02-01 07:00:00
Details:  TORNADO DESTROYED FENCES, SMALL TREES, GYRATING WINDS/CLOUDS, STORM TRACED TO MUSSWELLBROOK</description>
      <Point>
        <coordinates>151.0167,-33.8167,0</coordinates>
      </Point>
    </Placemark>
    <Placemark>
      <name>MAROOTA/CATTAI CREEK</name>
      <description>Date/Time: 1840-12-26 14:00:00
Details:  TREES DOWN ALONG STORM TRACK, BRANCHES TORN AND TWISTED OFF, STORM TRACK TRACED TO WELLINGTON</description>
      <Point>
        <coordinates>150.9667,-33.5333,0</coordinates>
      </Point>
    </Placemark>
    <Placemark>
      <name>RAYMOND TERRACE 5 MILES EAST</name>
      <description>Date/Time: 1841-11-26 06:15:00
Details:  GYRATING CLOUDS,HAIL 5 CIRCUMFERENCE PIERCED TI-TREE BARK ROOF OF HOUSE&quot;</description>
      <Point>
        <coordinates>151.7500,-32.7667,0</coordinates>
      </Point>
    </Placemark>
    <Placemark>
      <name>PARRAMATTA</name>
      <description>Date/Time: 1841-12-20 08:00:00
Details:  BUILDINGS DESTROYED/DAMAGED,WORKSHOP LIFTED OFF FOUNDATIONS,LARGE TREES BLOWN DOWN</description>
      <Point>
        <coordinates>151.0167,-33.8167,0</coordinates>
      </Point>
    </Placemark>
    <Placemark>
      <name>WOLLONDILLY (HIGH CNTRY NEAR)</name>
      <description>Date/Time: 1841-12-29 14:00:00
Details:  DATE GIVEN AS LATE DECEMBER,TORNADO CARRIED AWAY WHATEVER IT HIT, DISPERSED HAYSTACK OVER COUNTRYSIDE</description>
      <Point>
        <coordinates>150.0000,-34.1667,0</coordinates>
      </Point>
    </Placemark>
    <Placemark>
      <name>PARRAMATTA/SYDNEY</name>
      <description>Date/Time: 1842-02-17 14:00:00
Details:  REGULAR GYRATION OF WIND/CLOUD, FACTORY UNROOFED, TWO FENCES BLOWN DOWN, TREES STRIPPED</description>
      <Point>
        <coordinates>151.2167,-33.8834,0</coordinates>
      </Point>
    </Placemark>
    <Placemark>
      <name>SEVEN HILLS/B H/PARRAMATTA</name>
      <description>Date/Time: 1845-11-20 07:00:00
Details:  ENORMOUS ICE BALLS,ORCHARDS DEST.,KILLED POULTRY/PIGS,ICE UNMELTED 5 DAYS LATER, EST. CRICKET BALL SIZE</description>
      <Point>
        <coordinates>151.0167,-33.8167,0</coordinates>
      </Point>
    </Placemark>
    <Placemark>
      <name>PIEDMONT</name>
      <description>Date/Time: 1861-06-30 14:00:00
Details:  TORNADO, TOPS TAKEN OFF ALL TREES IN PATH, TREES TWISTED AND BROKEN OFF CLOSE TO GROUND</description>
      <Point>
        <coordinates>150.6167,-30.2333,0</coordinates>
      </Point>
    </Placemark>
    <Placemark>
      <name>BURRANGONG</name>
      <description>Date/Time: 1881-01-23 14:00:00
Details:  TORNADO, FISH FOUND IN BUSH AFTER STORM,</description>
      <Point>
        <coordinates>148.2667,-34.2833,0</coordinates>
      </Point>
    </Placemark>
    <Placemark>
      <name>GNALTA (100 MILES NW WCA)</name>
      <description>Date/Time: 1888-09-20 14:00:00
Details:  TORNADO, FISH FOUND IN WATER TANK</description>
      <Point>
        <coordinates>142.3333,-31.0500,0</coordinates>
      </Point>
    </Placemark>
    <Placemark>
      <name>RICHMOND</name>
      <description>Date/Time: 1888-09-29 14:00:00
Details:  TORNADO UNROOFED HOUSES, DAY UNCERTAIN-END OF MONTH STATED</description>
      <Point>
        <coordinates>150.7500,-33.6000,0</coordinates>
      </Point>
    </Placemark>
    <Placemark>
      <name>DUNGOG  (6 MILES FROM)</name>
      <description>Date/Time: 1888-12-10 14:00:00
Details:  CYCLONE, HOUSES UNROOFED, 3' DIAMETER TRRES BROKEN OFF, HAIL DESTROYS CROPS</description>
      <Point>
        <coordinates>151.7167,-32.4500,0</coordinates>
      </Point>
    </Placemark>
    <Placemark>
      <name>CARRINGTON PARK</name>
      <description>Date/Time: 1889-01-02 14:00:00
Details:  15 MILES EAST OF BOURKE,TORNADO 20 FT DIAMETER AT BASE,DEST. TREE,LOUD BUZZING NOISE,REVOLVING AT HIGH SPEED</description>
      <Point>
        <coordinates>146.5000,-30.0833,0</coordinates>
      </Point>
    </Placemark>
    <Placemark>
      <name>COLANE</name>
      <description>Date/Time: 1889-01-06 14:00:00
Details: TORNADO</description>
      <Point>
        <coordinates>147.2500,-31.2500,0</coordinates>
      </Point>
    </Placemark>
    <Placemark>
      <name>SYDNEY</name>
      <description>Date/Time: 1889-01-27 05:50:00
Details:  TORNADO, DAMAGE PATH 320 YDS x 55 YDS</description>
      <Point>
        <coordinates>151.2167,-33.8834,0</coordinates>
      </Point>
    </Placemark>
    <Placemark>
      <name>GURLEY</name>
      <description>Date/Time: 1889-03-07 14:00:00
Details: TORNADO</description>
      <Point>
        <coordinates>149.8000,-29.7333,0</coordinates>
      </Point>
    </Placemark>
    <Placemark>
      <name>HERCYNIA</name>
      <description>Date/Time: 1889-03-13 01:00:00
Details:  TORNADO, THREE DISTINCT WHIRL MARKS ON GROUND</description>
      <Point>
        <coordinates>151.0000,-33.8667,0</coordinates>
      </Point>
    </Placemark>
    <Placemark>
      <name>GIRILAMBONE/SUSSEX</name>
      <description>Date/Time: 1889-11-23 09:15:00
Details:  TORNADO,SEVERAL BUILDINGS UNROOFED,LARGE TREES BLOWN DOWN,FORCED HEAVY BULLOCK WAGON FORWARD</description>
      <Point>
        <coordinates>146.8333,-31.3000,0</coordinates>
      </Point>
    </Placemark>
    <Placemark>
      <name>CORONGA DOWNS</name>
      <description>Date/Time: 1889-12-06 14:00:00
Details: WHIRLWINDS SHATTER TREES</description>
      <Point>
        <coordinates>145.9834,-31.1667,0</coordinates>
      </Point>
    </Placemark>
    <Placemark>
      <name>DENILIQUIN</name>
      <description>Date/Time: 1890-12-28 06:00:00
Details:  TORNADO, 200 HOUSES DAMAGED-SOME WRECKED, STORM 2 MILES WIDE-LASTED 7 MINUTES-FOLLOWED BY 5 MINUTES OF HAIL</description>
      <Point>
        <coordinates>144.9500,-35.5333,0</coordinates>
      </Point>
    </Placemark>
    <Placemark>
      <name>YETMAN/COOLATAI/COBBADAH</name>
      <description>Date/Time: 1891-02-23 06:00:00
Details:  TORNADO, DAMAGE 270 YARDS WIDE</description>
      <Point>
        <coordinates>150.7667,-28.9000,0</coordinates>
      </Point>
    </Placemark>
    <Placemark>
      <name>COOGEE</name>
      <description>Date/Time: 1891-03-19 14:00:00
Details:  TORNADO, SOME FLOODING</description>
      <Point>
        <coordinates>151.2167,-33.8834,0</coordinates>
      </Point>
    </Placemark>
    <Placemark>
      <name>LOWER CREEK</name>
      <description>Date/Time: 1892-01-10 14:00:00
Details: TORNADO</description>
      <Point>
        <coordinates>152.2667,-30.7333,0</coordinates>
      </Point>
    </Placemark>
    <Placemark>
      <name>NARRABRI</name>
      <description>Date/Time: 1892-11-13 08:00:00
Details: TORNADO</description>
      <Point>
        <coordinates>149.7833,-30.3333,0</coordinates>
      </Point>
    </Placemark>
    <Placemark>
      <name>INVERELL</name>
      <description>Date/Time: 1892-12-26 14:00:00
Details:  TORNADO, ROOFS OFF 3 BRICK HOUSES AS WELL AS 2 WOOLSHEDS</description>
      <Point>
        <coordinates>151.1167,-29.7667,0</coordinates>
      </Point>
    </Placemark>
    <Placemark>
      <name>MACLEAN</name>
      <description>Date/Time: 1893-03-08 04:00:00
Details:  TORNADO, LIFTED WATER IN AIR 40',TREES BROKEN, LASTED FEW MINS</description>
      <Point>
        <coordinates>153.2000,-29.4667,0</coordinates>
      </Point>
    </Placemark>
    <Placemark>
      <name>WYALONG</name>
      <description>Date/Time: 1893-05-28 14:00:00
Details:  TORNADO, 400 YARDS WIDE, LARGE TREES TORN UP, FENCES DESTROYED</description>
      <Point>
        <coordinates>147.2500,-33.9334,0</coordinates>
      </Point>
    </Placemark>
    <Placemark>
      <name>GOOLAGONG</name>
      <description>Date/Time: 1893-12-12 14:00:00
Details:  TORNADO, DESTROYED A FEW ROOFS, FELLED TREES</description>
      <Point>
        <coordinates>148.4000,-33.6000,0</coordinates>
      </Point>
    </Placemark>
    <Placemark>
      <name>CENTENNIAL PARK</name>
      <description>Date/Time: 1894-09-08 14:00:00
Details:  TORNADO, LASTED THRRE MINUTES</description>
      <Point>
        <coordinates>151.2167,-33.8834,0</coordinates>
      </Point>
    </Placemark>
    <Placemark>
      <name>MOOLBONG</name>
      <description>Date/Time: 1894-11-28 12:00:00
Details:  TORNADO, 1/2 MILE WIDE TRACK</description>
      <Point>
        <coordinates>144.9500,-33.3500,0</coordinates>
      </Point>
    </Placemark>
    <Placemark>
      <name>BELLANGRY</name>
      <description>Date/Time: 1894-12-30 14:00:00
Details: TORNADO</description>
      <Point>
        <coordinates>152.6167,-31.3500,0</coordinates>
      </Point>
    </Placemark>
    <Placemark>
      <name>SWAN BAY</name>
      <description>Date/Time: 1894-12-30 12:00:00
Details:  TORNADO, CYCLONIC ACTION, DAMAGES PROPERTY</description>
      <Point>
        <coordinates>153.3167,-29.0667,0</coordinates>
      </Point>
    </Placemark>
    <Placemark>
      <name>PIRRILLIE</name>
      <description>Date/Time: 1895-12-02 14:00:00
Details:  TORNADO, WRECKED SEVERAL BUILDINGS, TORE UP TREES, 0.52/2 MINUTES&quot;</description>
      <Point>
        <coordinates>145.3833,-29.6000,0</coordinates>
      </Point>
    </Placemark>
    <Placemark>
      <name>COBAR</name>
      <description>Date/Time: 1896-01-12 14:00:00
Details:  TORNADO, UNROOFED HOUSES</description>
      <Point>
        <coordinates>145.5000,-31.5000,0</coordinates>
      </Point>
    </Placemark>
    <Placemark>
      <name>RIVERTREE</name>
      <description>Date/Time: 1896-01-12 14:00:00
Details:  TORNADO, UNROOFED HOUSES</description>
      <Point>
        <coordinates>152.3000,-28.6333,0</coordinates>
      </Point>
    </Placemark>
    <Placemark>
      <name>GONGOLGON</name>
      <description>Date/Time: 1896-09-13 14:00:00
Details:  TORNADO, DAY NOT GIVEN</description>
      <Point>
        <coordinates>146.9000,-30.3500,0</coordinates>
      </Point>
    </Placemark>
    <Placemark>
      <name>GONGOLGON</name>
      <description>Date/Time: 1896-12-14 14:00:00
Details: TORNADO</description>
      <Point>
        <coordinates>146.9000,-30.3500,0</coordinates>
      </Point>
    </Placemark>
    <Placemark>
      <name>MUDGEE</name>
      <description>Date/Time: 1896-12-14 14:00:00
Details:  TORNADO, ROOF OF LARGE HOUSE LIFTED AND SCATTERED ABOUT 4 MILES AROUND, CROPS DESTROYED</description>
      <Point>
        <coordinates>149.5833,-32.6000,0</coordinates>
      </Point>
    </Placemark>
    <Placemark>
      <name>MUNGERIBAR/NEVERTIRE</name>
      <description>Date/Time: 1896-12-28 06:30:00
Details:  TORNADO,LASTED 30 MINS,PARTLY DEST. RSTA , BLEW DOWN HOUSES, 6 MILES WIDE</description>
      <Point>
        <coordinates>148.1167,-32.1333,0</coordinates>
      </Point>
    </Placemark>
    <Placemark>
      <name>NELUNGALOO</name>
      <description>Date/Time: 1897-01-04 06:00:00
Details:  TORNADO, 50 YDS WIDE, CARRIED AWAY ONE SIDE OF ROOF BARN</description>
      <Point>
        <coordinates>148.0000,-33.1500,0</coordinates>
      </Point>
    </Placemark>
    <Placemark>
      <name>CHATSWOOD</name>
      <description>Date/Time: 1897-06-01 00:00:00
Details:  TORNADO, UNROOFED HOUSES-UPROOTED TREES, IN ITS TRACK BUILDINGS LEVELLED</description>
      <Point>
        <coordinates>151.2167,-33.8834,0</coordinates>
      </Point>
    </Placemark>
    <Placemark>
      <name>PINE GROVE</name>
      <description>Date/Time: 1897-12-31 08:00:00
Details:  TORNADO, 40 CHAINS WIDE, GREAT DAMAGE</description>
      <Point>
        <coordinates>148.7833,-31.3333,0</coordinates>
      </Point>
    </Placemark>
    <Placemark>
      <name>COWRA</name>
      <description>Date/Time: 1898-10-26 14:00:00
Details:  TORNADO, BLEW OUTHOUSES OVER, UPROOTED TREES</description>
      <Point>
        <coordinates>148.6833,-33.8334,0</coordinates>
      </Point>
    </Placemark>
    <Placemark>
      <name>MULGOA</name>
      <description>Date/Time: 1899-01-10 04:30:00
Details:  TORNADO, UNROOFED BUILDING 30' LONG AND CARRIED IT 80 YDS, DAMAGE PATH 100-150 YDS WIDE</description>
      <Point>
        <coordinates>150.6500,-33.8500,0</coordinates>
      </Point>
    </Placemark>
    <Placemark>
      <name>MULGOA</name>
      <description>Date/Time: 1899-01-14 01:00:00
Details:  TORNADO, LASTED 3 MINUTES</description>
      <Point>
        <coordinates>150.6500,-33.8500,0</coordinates>
      </Point>
    </Placemark>
    <Placemark>
      <name>WARRAWEENA</name>
      <description>Date/Time: 1899-01-17 14:00:00
Details:  TORNADO, UPROOTED TREES, GREAT DAMAGE TO BUILDINGS</description>
      <Point>
        <coordinates>146.2333,-29.9334,0</coordinates>
      </Point>
    </Placemark>
    <Placemark>
      <name>NEWCASTLE</name>
      <description>Date/Time: 1899-11-06 14:00:00
Details:  TORNADO, LASTED 1/2 HR, SEVERAL BLDNGS DEST., TELEGRAPH POLES SMASHED, LAMP POSTS BENT LIKE WIRE</description>
      <Point>
        <coordinates>151.7667,-32.9334,0</coordinates>
      </Point>
    </Placemark>
    <Placemark>
      <name>BELLBROOK</name>
      <description>Date/Time: 1900-02-22 14:00:00
Details:  TORNADO, UNROOFS SEVERAL BLDNGS, DAMAGES TELEGRAPH LINES</description>
      <Point>
        <coordinates>152.5167,-30.8167,0</coordinates>
      </Point>
    </Placemark>
    <Placemark>
      <name>KILGOWLA AND NARRABRI</name>
      <description>Date/Time: 1900-12-03 08:30:00
Details:  HOUSES UNROOFED, TREES UPROOTED, STORM PATH 200 YDS WIDE</description>
      <Point>
        <coordinates>149.7833,-29.8000,0</coordinates>
      </Point>
    </Placemark>
    <Placemark>
      <name>WOODBURN(3)/COOTAMUNDRA</name>
      <description>Date/Time: 1900-12-04 04:10:00
Details:  HOUSES UNROOFED, LARGE TREES SNAPPED OFF, DAMAGE 3/4 MILE WIDE, HAIL DESTROYS CROPS</description>
      <Point>
        <coordinates>148.1167,-35.0000,0</coordinates>
      </Point>
    </Placemark>
    <Placemark>
      <name>BINGARA</name>
      <description>Date/Time: 1901-01-01 07:00:00
Details:  UNROOFED HOUSES, UPROOTED TREES</description>
      <Point>
        <coordinates>150.5667,-29.8667,0</coordinates>
      </Point>
    </Placemark>
    <Placemark>
      <name>THE CUBAS (W OF BOOLIGAL)</name>
      <description>Date/Time: 1901-11-20 07:00:00
Details:  TORNADO, CONSIDERABLE DAMAGE TO ROOFS, CARRIED AWAY IRON AND TIMBER BODILY</description>
      <Point>
        <coordinates>144.8834,-33.8667,0</coordinates>
      </Point>
    </Placemark>
    <Placemark>
      <name>GUNDABOOKA</name>
      <description>Date/Time: 1901-12-31 14:00:00
Details:  TORNADO, DAY NOT RIGHT OCCURRED BETWEEN THE 1ST AND 8TH, UNROOFED HALF OF BARN, ROTATION IN CLOUD</description>
      <Point>
        <coordinates>145.5000,-30.4000,0</coordinates>
      </Point>
    </Placemark>
    <Placemark>
      <name>NARRABRI</name>
      <description>Date/Time: 1902-01-14 14:00:00
Details:  TORNADO, DAY WAS NOT SPECIFIED</description>
      <Point>
        <coordinates>149.7833,-30.3333,0</coordinates>
      </Point>
    </Placemark>
    <Placemark>
      <name>GOOLAGONG</name>
      <description>Date/Time: 1902-09-14 14:00:00
Details:  TORNADO, DAY NOT GIVEN</description>
      <Point>
        <coordinates>148.4000,-33.6000,0</coordinates>
      </Point>
    </Placemark>
    <Placemark>
      <name>BROWLEY/WOODLAND PARK</name>
      <description>Date/Time: 1902-09-26 14:00:00
Details:  UPROOTED TREES, TORE UP GROUND/FENCES, LASTED A FEW MINUTES</description>
      <Point>
        <coordinates>146.1000,-35.0000,0</coordinates>
      </Point>
    </Placemark>
    <Placemark>
      <name>GOOLAGONG</name>
      <description>Date/Time: 1902-10-14 14:00:00
Details:  TORNADO, DAY NOT GIVEN</description>
      <Point>
        <coordinates>148.4000,-33.6000,0</coordinates>
      </Point>
    </Placemark>
    <Placemark>
      <name>GOOLAGONG/CANOWINDRA</name>
      <description>Date/Time: 1902-11-08 04:00:00
Details:  TORNADO, CONSIDERABLE DAMAGE TO STANDING TIMBER FENCES SHEDS ETC</description>
      <Point>
        <coordinates>148.5000,-33.5000,0</coordinates>
      </Point>
    </Placemark>
    <Placemark>
      <name>MOUNT HOPE</name>
      <description>Date/Time: 1902-11-22 14:00:00
Details:  TORNADO, UNROOFED SEVERAL VERANDAHS</description>
      <Point>
        <coordinates>145.8834,-32.8500,0</coordinates>
      </Point>
    </Placemark>
    <Placemark>
      <name>GOOLAGONG</name>
      <description>Date/Time: 1902-12-14 14:00:00
Details:  TORNADO, DAY UNCERTAIN</description>
      <Point>
        <coordinates>148.4000,-33.6000,0</coordinates>
      </Point>
    </Placemark>
    <Placemark>
      <name>COBBITTY</name>
      <description>Date/Time: 1903-01-14 05:00:00
Details:  TORNADO, HOUSES AND FARM BUILDINGS BLOWN DOWN</description>
      <Point>
        <coordinates>150.6833,-34.0167,0</coordinates>
      </Point>
    </Placemark>
    <Placemark>
      <name>RAMORNIE</name>
      <description>Date/Time: 1903-01-22 09:00:00
Details:  LASTED 5 MINS, UNROOFED HOUSE, BROKE 100'S TREES, NARROW DAMAGE PATH, ROARING NOISE ABT 10 MILES SW</description>
      <Point>
        <coordinates>152.7333,-29.5833,0</coordinates>
      </Point>
    </Placemark>
    <Placemark>
      <name>COOTAMUNDRA</name>
      <description>Date/Time: 1903-04-14 14:00:00
Details: TORNADO</description>
      <Point>
        <coordinates>148.0333,-34.6333,0</coordinates>
      </Point>
    </Placemark>
    <Placemark>
      <name>PARKES</name>
      <description>Date/Time: 1903-10-11 06:00:00
Details:  MANY BUILDINGS DAMAGED, TREES BROKEN, IRON BLOWN ABOUT</description>
      <Point>
        <coordinates>148.1833,-33.1333,0</coordinates>
      </Point>
    </Placemark>
    <Placemark>
      <name>COOLANBILLA (COOLUMBILLA ?)</name>
      <description>Date/Time: 1903-12-20 14:00:00
Details: WAGONS SHIFTED 8-10 FEET</description>
      <Point>
        <coordinates>150.1500,-31.3667,0</coordinates>
      </Point>
    </Placemark>
    <Placemark>
      <name>CLOVER CREEK</name>
      <description>Date/Time: 1904-10-19 05:00:00
Details:  UNROOFED HOUSES, UPROOTS TREES, HAIL NO SIZE GIVEN</description>
      <Point>
        <coordinates>145.5000,-30.3167,0</coordinates>
      </Point>
    </Placemark>
    <Placemark>
      <name>CONDONG</name>
      <description>Date/Time: 1904-12-18 14:00:00
Details:  BUILDINGS UNROOFED, CARRIED IRON 150 METRES, TERRIFIC FALLS</description>
      <Point>
        <coordinates>153.4333,-28.3167,0</coordinates>
      </Point>
    </Placemark>
    <Placemark>
      <name>DALMORTON</name>
      <description>Date/Time: 1904-12-23 14:00:00
Details:  DAMAGE PATH 60 MILES LONG- 1 MILE WIDE, BLDNGS UNROOFED, LARGE TREES DOWN, LARGE HAIL NO SIZE GIVEN</description>
      <Point>
        <coordinates>152.4500,-29.8667,0</coordinates>
      </Point>
    </Placemark>
    <Placemark>
      <name>BINGARA</name>
      <description>Date/Time: 1905-01-20 14:00:00
Details:  TREES UPROOTED, TIMBER STREWN ON ROADS</description>
      <Point>
        <coordinates>150.5667,-29.8667,0</coordinates>
      </Point>
    </Placemark>
    <Placemark>
      <name>BOOROLONG</name>
      <description>Date/Time: 1906-01-05 14:00:00
Details:  DAMAGE PATH MILES LONG - ONLY 10 YARDS WIDE IN SOME PLACES,   LIFTED OFF GROUND SEVERAL TIMES</description>
      <Point>
        <coordinates>151.5333,-30.3167,0</coordinates>
      </Point>
    </Placemark>
    <Placemark>
      <name>WEILMORINGLE</name>
      <description>Date/Time: 1906-01-24 14:00:00
Details:  STORE BLOWN DOWN, DAMAGE TO BUILDINGS</description>
      <Point>
        <coordinates>146.9167,-29.2333,0</coordinates>
      </Point>
    </Placemark>
    <Placemark>
      <name>NORTH SYDNEY</name>
      <description>Date/Time: 1906-03-27 01:50:00
Details: TORNADO</description>
      <Point>
        <coordinates>151.2167,-33.8834,0</coordinates>
      </Point>
    </Placemark>
    <Placemark>
      <name>BOURKE</name>
      <description>Date/Time: 1906-09-10 14:00:00
Details:  BLOW DOWN PART OF HOTEL, DAMAGE HOUSES</description>
      <Point>
        <coordinates>145.9334,-30.0833,0</coordinates>
      </Point>
    </Placemark>
    <Placemark>
      <name>KERGUNYAH</name>
      <description>Date/Time: 1906-11-27 14:00:00
Details:  DAMAGE PATH 0.5 MILE WIDE, 11 BLDGS UNROOFED, LARGE GUMS UPROOTED,A WOOLSHED WRECKED,ROOF IRON 1 MIL</description>
      <Point>
        <coordinates>146.1333,-31.1667,0</coordinates>
      </Point>
    </Placemark>
    <Placemark>
      <name>MAYFIELD</name>
      <description>Date/Time: 1907-12-15 03:45:00
Details:  HOUSES UNROOFED, TREES DOWN</description>
      <Point>
        <coordinates>151.7667,-32.9334,0</coordinates>
      </Point>
    </Placemark>
    <Placemark>
      <name>MOUNT DAVID</name>
      <description>Date/Time: 1908-01-15 14:00:00
Details: TORNADO</description>
      <Point>
        <coordinates>149.6000,-33.8167,0</coordinates>
      </Point>
    </Placemark>
    <Placemark>
      <name>RICHMOND</name>
      <description>Date/Time: 1908-02-29 14:00:00
Details:  POSSIBLE TORNADO, 2.5 CM HAIL LASTED 9 MIN - 13MM, CROPS AND TREES  DAMAGED</description>
      <Point>
        <coordinates>150.7500,-33.6000,0</coordinates>
      </Point>
    </Placemark>
    <Placemark>
      <name>ALBURY</name>
      <description>Date/Time: 1908-09-19 09:15:00
Details:  LASTED FEW MINUTES, WRECKED GRANDSTAND</description>
      <Point>
        <coordinates>146.9334,-36.0833,0</coordinates>
      </Point>
    </Placemark>
    <Placemark>
      <name>BROTHERONY STN (CONDOBOLIN)</name>
      <description>Date/Time: 1909-01-02 14:00:00
Details:  ON BORDER WITH RIVERINA, UNROOFED BUILDINGS UPROOTED TREES, CIRCULAR WILLY WILLIES</description>
      <Point>
        <coordinates>146.6500,-33.1000,0</coordinates>
      </Point>
    </Placemark>
    <Placemark>
      <name>COLLARENEBRI</name>
      <description>Date/Time: 1910-01-19 14:00:00
Details:  ROOFS OFF SHEDS AND VERANDAHS, 30 MM/0.5 HR, ON BORDER OF UW/NWP</description>
      <Point>
        <coordinates>148.5833,-29.5500,0</coordinates>
      </Point>
    </Placemark>
    <Placemark>
      <name>MILLIE/GORAH/GLENROY</name>
      <description>Date/Time: 1910-01-21 00:00:00
Details:  DESTROYED BLDGS,TORE UP TREES, 69MM/40 MIN</description>
      <Point>
        <coordinates>149.5667,-29.8167,0</coordinates>
      </Point>
    </Placemark>
    <Placemark>
      <name>BREWARRINA</name>
      <description>Date/Time: 1910-01-27 14:00:00
Details:  DAMAGE PATH 0.5-2 MILE WIDE IN ZIG ZAG TRAIL, HAIL HEN EGG SIZE AND JAGGED, DESTROYED MANY HOMES</description>
      <Point>
        <coordinates>146.8667,-29.9667,0</coordinates>
      </Point>
    </Placemark>
    <Placemark>
      <name>GEMVILLE (WHITE CLIFFS)</name>
      <description>Date/Time: 1910-11-04 14:00:00
Details:  DAMAGE TRAIL THRU SCRUB, WIND IN KNOTS - ESTIMATED, HAIL STRIPPED GROUND BARE</description>
      <Point>
        <coordinates>142.9334,-30.9167,0</coordinates>
      </Point>
    </Placemark>
    <Placemark>
      <name>KIALLA (CROOKWELL)</name>
      <description>Date/Time: 1910-12-14 14:00:00
Details:  DAY NOT GIVEN ONLY MIDDLE DECEMBER, MUCH DAMAGE, LOOKED LIKE WATERSPOUT</description>
      <Point>
        <coordinates>149.4833,-34.4667,0</coordinates>
      </Point>
    </Placemark>
    <Placemark>
      <name>CUDAL</name>
      <description>Date/Time: 1911-09-29 00:20:00
Details:  TORNADO SEEN - MOVED FOR SOME DISTANCE, TREES UPROOTED, DAMAGE PATH 300 YDS LONG</description>
      <Point>
        <coordinates>148.7333,-33.2833,0</coordinates>
      </Point>
    </Placemark>
    <Placemark>
      <name>TRUNDLE</name>
      <description>Date/Time: 1911-12-29 14:00:00
Details: MANY TREES AND FENCES DOWN</description>
      <Point>
        <coordinates>147.7000,-32.9167,0</coordinates>
      </Point>
    </Placemark>
    <Placemark>
      <name>GRENFELL</name>
      <description>Date/Time: 1912-08-26 07:45:00
Details:  HOUSES UNROOFED, TREES UPROOTED, CHIMNEYS AND VERANDAHS BLOWN DOWN</description>
      <Point>
        <coordinates>148.1667,-33.9000,0</coordinates>
      </Point>
    </Placemark>
    <Placemark>
      <name>PIMLICO</name>
      <description>Date/Time: 1912-11-21 01:00:00
Details:  200-300' HIGH &amp; 4' WIDE FUNNEL INTO DARK CLOUD, ROAR HEARD 8 MILES  AWAY</description>
      <Point>
        <coordinates>153.5000,-28.9167,0</coordinates>
      </Point>
    </Placemark>
    <Placemark>
      <name>WILCANNIA</name>
      <description>Date/Time: 1913-01-11 14:00:00
Details: POSSIBLE TORNADO BUT DATE MAY BE WRONG COULD BE 12/11/1913</description>
      <Point>
        <coordinates>143.3667,-31.5667,0</coordinates>
      </Point>
    </Placemark>
    <Placemark>
      <name>GOOLAGONG</name>
      <description>Date/Time: 1913-01-27 14:00:00
Details:  TREES OVERTHROWN, BRANCHES RIPPED OFF</description>
      <Point>
        <coordinates>148.4000,-33.6000,0</coordinates>
      </Point>
    </Placemark>
    <Placemark>
      <name>CONDOBOLIN</name>
      <description>Date/Time: 1913-01-28 14:00:00
Details: SHEDS AND FENCES DAMAGED</description>
      <Point>
        <coordinates>147.1500,-33.0833,0</coordinates>
      </Point>
    </Placemark>
    <Placemark>
      <name>BLAYNEY (OCCURRED AT NEVILLE)</name>
      <description>Date/Time: 1913-11-11 14:00:00
Details:  ALL TREES AND BUILDINGS IN ITS PATH WERE DESTROYED, NEVILLE IS 15 KMFROM BLAYNEY</description>
      <Point>
        <coordinates>149.2167,-33.7167,0</coordinates>
      </Point>
    </Placemark>
    <Placemark>
      <name>PARRAMATTA</name>
      <description>Date/Time: 1913-11-11 14:00:00
Details: TORNADO</description>
      <Point>
        <coordinates>151.0167,-33.8167,0</coordinates>
      </Point>
    </Placemark>
    <Placemark>
      <name>QUIRINDI</name>
      <description>Date/Time: 1913-11-11 14:00:00
Details: LARGE NUMBERS OF FISH FELL FROM SKY</description>
      <Point>
        <coordinates>150.6833,-31.5000,0</coordinates>
      </Point>
    </Placemark>
    <Placemark>
      <name>MURPA (WILCANNIA)</name>
      <description>Date/Time: 1913-11-12 08:00:00
Details:  STORM 2 MILES WIDE, THE WCA STORM ON 12/1/1913 MAY BE THIS ONE !!</description>
      <Point>
        <coordinates>143.3667,-31.5667,0</coordinates>
      </Point>
    </Placemark>
    <Placemark>
      <name>GOOLAGONG</name>
      <description>Date/Time: 1913-11-14 14:00:00
Details:  DAY NOT GIVEN, TORNADO NEAR TOWN, CONSIDERABLE DAMAGE</description>
      <Point>
        <coordinates>148.4000,-33.6000,0</coordinates>
      </Point>
    </Placemark>
    <Placemark>
      <name>COLLARENEBRI</name>
      <description>Date/Time: 1913-12-24 14:00:00
Details:  UNROOFED HOUSES, TREES UPROOTED</description>
      <Point>
        <coordinates>148.5833,-29.5500,0</coordinates>
      </Point>
    </Placemark>
    <Placemark>
      <name>PARRAMATTA</name>
      <description>Date/Time: 1914-03-27 14:00:00
Details:  LASTED 5 MINUTES, UPROOTED TREES, MUCH DAMAGE</description>
      <Point>
        <coordinates>151.0167,-33.8167,0</coordinates>
      </Point>
    </Placemark>
    <Placemark>
      <name>WENTWORTHVILLE</name>
      <description>Date/Time: 1914-04-02 14:00:00
Details:  MANY HOMES DEMOLISHED, GREAT DAMAGE TO PROPERTY</description>
      <Point>
        <coordinates>150.9167,-33.7667,0</coordinates>
      </Point>
    </Placemark>
    <Placemark>
      <name>MACLEAN</name>
      <description>Date/Time: 1914-06-17 14:00:00
Details:  CYCLONIC STORM, GALE AT MOORLAND - RALEIGH - WOOLGOOLGA ON 18/19</description>
      <Point>
        <coordinates>153.2000,-29.4667,0</coordinates>
      </Point>
    </Placemark>
    <Placemark>
      <name>BURREN JUNCTION</name>
      <description>Date/Time: 1914-12-31 00:30:00
Details:  HAIL AS LARGE AS PIGEONS EGGS, WIND IN KNOTS (EST.), WHIRLWINDS SEEN</description>
      <Point>
        <coordinates>148.9667,-30.1000,0</coordinates>
      </Point>
    </Placemark>
    <Placemark>
      <name>SINGLETON</name>
      <description>Date/Time: 1916-01-08 14:00:00
Details: TORNADO</description>
      <Point>
        <coordinates>151.1667,-32.5667,0</coordinates>
      </Point>
    </Placemark>
    <Placemark>
      <name>YETMAN</name>
      <description>Date/Time: 1916-03-06 05:00:00
Details: TORNADO</description>
      <Point>
        <coordinates>150.7667,-28.9000,0</coordinates>
      </Point>
    </Placemark>
    <Placemark>
      <name>TAREE</name>
      <description>Date/Time: 1918-02-20 03:45:00
Details: TORNADO</description>
      <Point>
        <coordinates>152.4833,-31.9000,0</coordinates>
      </Point>
    </Placemark>
    <Placemark>
      <name>MOLONG</name>
      <description>Date/Time: 1918-10-29 14:00:00
Details: TORNADO</description>
      <Point>
        <coordinates>148.8667,-33.1000,0</coordinates>
      </Point>
    </Placemark>
    <Placemark>
      <name>DAYSDALE</name>
      <description>Date/Time: 1919-11-30 14:00:00
Details:  TORNADO, TORRENTIAL RAIN &amp; HAIL, SOME BUILDINGS UNROOFED, DAMAGE TO GARDENS &amp; ORCHARDS</description>
      <Point>
        <coordinates>146.3000,-35.6500,0</coordinates>
      </Point>
    </Placemark>
    <Placemark>
      <name>BOGGABRI</name>
      <description>Date/Time: 1921-12-02 09:30:00
Details: TORNADO</description>
      <Point>
        <coordinates>150.0500,-30.7000,0</coordinates>
      </Point>
    </Placemark>
    <Placemark>
      <name>CONCORD</name>
      <description>Date/Time: 1923-08-30 08:00:00
Details: TORNADO</description>
      <Point>
        <coordinates>151.2167,-33.8834,0</coordinates>
      </Point>
    </Placemark>
    <Placemark>
      <name>SINGLETON</name>
      <description>Date/Time: 1923-12-21 14:00:00
Details: TORNADO</description>
      <Point>
        <coordinates>151.1667,-32.5667,0</coordinates>
      </Point>
    </Placemark>
    <Placemark>
      <name>WINGHAM</name>
      <description>Date/Time: 1924-02-05 14:00:00
Details: TORNADO</description>
      <Point>
        <coordinates>152.3667,-31.8667,0</coordinates>
      </Point>
    </Placemark>
    <Placemark>
      <name>BALRANALD</name>
      <description>Date/Time: 1925-01-11 14:00:00
Details:  TORNADO,000'S POUNDS DAMAGE, BUILDINGS DEMOLISHED, 2 PEOPLE INJURED</description>
      <Point>
        <coordinates>143.5667,-34.6333,0</coordinates>
      </Point>
    </Placemark>
    <Placemark>
      <name>REDBRIDGE</name>
      <description>Date/Time: 1926-05-24 14:00:00
Details:  BUILDINGS DEMOLISHED, GREAT DAMAGE TO FENCES/STOCK/CROPS</description>
      <Point>
        <coordinates>148.2833,-34.4667,0</coordinates>
      </Point>
    </Placemark>
    <Placemark>
      <name>NEWCASTLE</name>
      <description>Date/Time: 1928-01-23 14:00:00
Details:  3000 POUNDS DAMAGE, HOUSES UNROOFED, TREES MOWN DOWN LIKE GRASS</description>
      <Point>
        <coordinates>151.7667,-32.9334,0</coordinates>
      </Point>
    </Placemark>
    <Placemark>
      <name>ALSTONVILLE</name>
      <description>Date/Time: 1929-03-17 14:00:00
Details:  DAMAGE PATH 100 YARDS WIDE, BUILDINGS DEMOLISHED, TREES UPROOTED</description>
      <Point>
        <coordinates>153.4333,-28.8333,0</coordinates>
      </Point>
    </Placemark>
    <Placemark>
      <name>BURREN JUNCTION</name>
      <description>Date/Time: 1929-12-09 14:00:00
Details:  LASTED 30 SECONDS, BUILDINGS LEVELLED</description>
      <Point>
        <coordinates>148.9667,-30.1000,0</coordinates>
      </Point>
    </Placemark>
    <Placemark>
      <name>WYNDONGA</name>
      <description>Date/Time: 1930-03-17 14:00:00
Details:  LASTED FEW SECONDS,TRACK 22 YARDS WIDE,BOATS HIGH &amp; DRY 300 YARDS FROM MOORINGS,EXTENSIVE DAMAGE</description>
      <Point>
        <coordinates>141.8000,-30.5167,0</coordinates>
      </Point>
    </Placemark>
    <Placemark>
      <name>BANKSTOWN</name>
      <description>Date/Time: 1930-07-10 14:00:00
Details: TORNADO</description>
      <Point>
        <coordinates>151.2167,-33.8834,0</coordinates>
      </Point>
    </Placemark>
    <Placemark>
      <name>TAMWORTH</name>
      <description>Date/Time: 1930-12-16 14:00:00
Details:  WIND &gt; 60 mph (EST.), DAMAGE TRAIL 100 YARDS WIDE, MOVED W TO E</description>
      <Point>
        <coordinates>150.9334,-31.0833,0</coordinates>
      </Point>
    </Placemark>
    <Placemark>
      <name>ARMIDALE SOUTH</name>
      <description>Date/Time: 1931-01-20 14:00:00
Details:  LIFTED ROOFS, DAMAGED HOUSES, STRIPPED GARDENS</description>
      <Point>
        <coordinates>151.6667,-30.5167,0</coordinates>
      </Point>
    </Placemark>
    <Placemark>
      <name>SALLY'S FLAT</name>
      <description>Date/Time: 1931-10-06 14:00:00
Details:  UPROOTED TREES, DAMAGED BUILDINGS, BLOCKED ROADS</description>
      <Point>
        <coordinates>149.5667,-33.0000,0</coordinates>
      </Point>
    </Placemark>
    <Placemark>
      <name>GRABBEN GULLEN</name>
      <description>Date/Time: 1931-11-07 14:00:00
Details: PRACTICALLY DEMOLISHED TOWNSHIP</description>
      <Point>
        <coordinates>149.4000,-34.5333,0</coordinates>
      </Point>
    </Placemark>
    <Placemark>
      <name>NARROMINE</name>
      <description>Date/Time: 1932-01-31 14:00:00
Details: TORNADO</description>
      <Point>
        <coordinates>148.2500,-32.2333,0</coordinates>
      </Point>
    </Placemark>
    <Placemark>
      <name>MURRURUNDI</name>
      <description>Date/Time: 1932-02-10 14:00:00
Details: TORNADO</description>
      <Point>
        <coordinates>150.8167,-31.7667,0</coordinates>
      </Point>
    </Placemark>
    <Placemark>
      <name>CRONULLA</name>
      <description>Date/Time: 1932-02-15 14:00:00
Details: TORNADO</description>
      <Point>
        <coordinates>151.1500,-34.0500,0</coordinates>
      </Point>
    </Placemark>
    <Placemark>
      <name>MANILLA</name>
      <description>Date/Time: 1932-10-07 14:00:00
Details:  000'S POUNDS DAMAGE, WATER TANKS FLATTENED,ONE TOSSED HIGH INTO TREE, STOCK DEAD</description>
      <Point>
        <coordinates>150.7167,-30.7500,0</coordinates>
      </Point>
    </Placemark>
    <Placemark>
      <name>YOUNG</name>
      <description>Date/Time: 1933-01-09 14:00:00
Details: TORNADO</description>
      <Point>
        <coordinates>148.3000,-34.3167,0</coordinates>
      </Point>
    </Placemark>
    <Placemark>
      <name>BELALIE</name>
      <description>Date/Time: 1933-03-12 14:00:00
Details: TORNADO</description>
      <Point>
        <coordinates>145.8000,-29.1500,0</coordinates>
      </Point>
    </Placemark>
    <Placemark>
      <name>WIRRINYA</name>
      <description>Date/Time: 1934-11-13 14:00:00
Details: TORNADO</description>
      <Point>
        <coordinates>147.8167,-33.6667,0</coordinates>
      </Point>
    </Placemark>
    <Placemark>
      <name>MUNGINDI</name>
      <description>Date/Time: 1934-12-26 20:00:00
Details:  TORNADO, HOUSES AND CROPS SEVERELY DAMAGED, PATH 1/2 MILE WIDE</description>
      <Point>
        <coordinates>149.0000,-28.9834,0</coordinates>
      </Point>
    </Placemark>
    <Placemark>
      <name>INVERELL</name>
      <description>Date/Time: 1934-12-29 14:00:00
Details:  TORNADO, BLEW DOWN PUBLIC HALL, CATTLE SEVERLY INJURED BY HAIL, FOWL DEAD (TAKE AS &gt;= 2 CM)</description>
      <Point>
        <coordinates>151.1167,-29.7667,0</coordinates>
      </Point>
    </Placemark>
    <Placemark>
      <name>CESSNOCK</name>
      <description>Date/Time: 1935-02-04 14:00:00
Details:  A HOUSE WRECKED, FENCES LEVELLED, TREES UPROOTED</description>
      <Point>
        <coordinates>151.3500,-32.8334,0</coordinates>
      </Point>
    </Placemark>
    <Placemark>
      <name>CASTLE HILL</name>
      <description>Date/Time: 1937-01-25 06:00:00
Details:  TORNADO, 4 DEAD</description>
      <Point>
        <coordinates>151.2167,-33.8834,0</coordinates>
      </Point>
    </Placemark>
    <Placemark>
      <name>MANLY</name>
      <description>Date/Time: 1937-12-07 14:00:00
Details: 1000 POUNDS DAMAGE</description>
      <Point>
        <coordinates>151.2167,-33.8834,0</coordinates>
      </Point>
    </Placemark>
    <Placemark>
      <name>JUNEE</name>
      <description>Date/Time: 1938-04-16 14:00:00
Details: TORNADO</description>
      <Point>
        <coordinates>147.5833,-34.8667,0</coordinates>
      </Point>
    </Placemark>
    <Placemark>
      <name>COFFS HARBOUR</name>
      <description>Date/Time: 1938-10-25 14:00:00
Details:  TORNADO, DAMAGE TO HOUSES</description>
      <Point>
        <coordinates>153.1333,-30.3000,0</coordinates>
      </Point>
    </Placemark>
    <Placemark>
      <name>WAGGA WAGGA</name>
      <description>Date/Time: 1938-11-22 14:00:00
Details:  TORNADO, BUILDING AND CROP DAMAGE</description>
      <Point>
        <coordinates>147.3667,-35.1167,0</coordinates>
      </Point>
    </Placemark>
    <Placemark>
      <name>JUNEE</name>
      <description>Date/Time: 1939-01-26 14:00:00
Details:  TORNADO, LARGE PINE TREES SNAPPED OFF AT THE BUTT</description>
      <Point>
        <coordinates>147.5833,-34.8667,0</coordinates>
      </Point>
    </Placemark>
    <Placemark>
      <name>BYROCK</name>
      <description>Date/Time: 1939-03-19 14:00:00
Details:  TORNADO, 000'S OF FISH FELL IN STREET</description>
      <Point>
        <coordinates>146.4000,-30.6667,0</coordinates>
      </Point>
    </Placemark>
    <Placemark>
      <name>BANGALOW/NEWRYBAR</name>
      <description>Date/Time: 1940-01-18 14:00:00
Details:  TORNADO, SEVERAL HOUSES UNROOFED, LASTED 15 MINUTES</description>
      <Point>
        <coordinates>153.5167,-28.6833,0</coordinates>
      </Point>
    </Placemark>
    <Placemark>
      <name>SYDNEY METRO</name>
      <description>Date/Time: 1940-10-31 05:00:00
Details:  TORNADO, WINDS TO 95 MPH, LASTED 10 MINUTES</description>
      <Point>
        <coordinates>151.2167,-33.8834,0</coordinates>
      </Point>
    </Placemark>
    <Placemark>
      <name>BALLINA</name>
      <description>Date/Time: 1940-11-13 14:00:00
Details:  TORNADO, 1 HOUSE DEMOLISHED SEVERAL UNROOFED, BOATS DRIVEN ASHORE, 1.04/30 MINS&quot;</description>
      <Point>
        <coordinates>153.5667,-28.8667,0</coordinates>
      </Point>
    </Placemark>
    <Placemark>
      <name>NARRANDERA</name>
      <description>Date/Time: 1940-12-06 14:00:00
Details:  TORNADO, DAMAGED SEVERAL LIGHT PLANES</description>
      <Point>
        <coordinates>146.5500,-34.7500,0</coordinates>
      </Point>
    </Placemark>
    <Placemark>
      <name>ARNCLIFFE</name>
      <description>Date/Time: 1941-05-23 14:00:00
Details:  LASTED 1 MINUTE, WRECKED PART OF SCHOOL, HOUSES UNROOFED</description>
      <Point>
        <coordinates>151.2167,-33.8834,0</coordinates>
      </Point>
    </Placemark>
    <Placemark>
      <name>BORENORE (NEAR ORANGE)</name>
      <description>Date/Time: 1941-06-07 14:00:00
Details:  NARROW AREA OF DESTRUCTION, BUILDINGS DEMOLISHED - UNROOFED</description>
      <Point>
        <coordinates>148.9834,-33.2500,0</coordinates>
      </Point>
    </Placemark>
    <Placemark>
      <name>FIVE DOCK</name>
      <description>Date/Time: 1941-08-18 09:00:00
Details:  PATH OF DESTRUCTION THRU FIVE DOCK, HABERFIELD, ASHFIELD, UNROOFED A SCORE OF BLDNGS</description>
      <Point>
        <coordinates>151.2167,-33.8834,0</coordinates>
      </Point>
    </Placemark>
    <Placemark>
      <name>DORA CREEK</name>
      <description>Date/Time: 1942-10-05 14:00:00
Details: TORNADO</description>
      <Point>
        <coordinates>151.5000,-33.0833,0</coordinates>
      </Point>
    </Placemark>
    <Placemark>
      <name>BOMBALA</name>
      <description>Date/Time: 1942-11-26 00:30:00
Details:  TREES AND SMALL BUILDINGS LIFTED, BUILDINGS UNROOFED</description>
      <Point>
        <coordinates>149.2500,-36.9167,0</coordinates>
      </Point>
    </Placemark>
    <Placemark>
      <name>MT VIEW</name>
      <description>Date/Time: 1943-12-25 14:00:00
Details: TORNADO</description>
      <Point>
        <coordinates>151.2833,-32.8500,0</coordinates>
      </Point>
    </Placemark>
    <Placemark>
      <name>MILLFIELD</name>
      <description>Date/Time: 1943-12-27 14:00:00
Details: TORNADO</description>
      <Point>
        <coordinates>151.2500,-32.8834,0</coordinates>
      </Point>
    </Placemark>
    <Placemark>
      <name>CAMPBELLTOWN</name>
      <description>Date/Time: 1944-01-15 14:00:00
Details: TORNADO</description>
      <Point>
        <coordinates>150.8167,-34.0667,0</coordinates>
      </Point>
    </Placemark>
    <Placemark>
      <name>ORANGE</name>
      <description>Date/Time: 1944-07-03 14:00:00
Details:  TORNADO,MUCH DAMAGE</description>
      <Point>
        <coordinates>149.1000,-33.2833,0</coordinates>
      </Point>
    </Placemark>
    <Placemark>
      <name>COBAR</name>
      <description>Date/Time: 1944-10-14 14:00:00
Details: TORNADO</description>
      <Point>
        <coordinates>145.5000,-31.5000,0</coordinates>
      </Point>
    </Placemark>
    <Placemark>
      <name>CESSNOCK</name>
      <description>Date/Time: 1944-11-12 14:00:00
Details:  TREES UPROOTED, BUILDINGS UNROOFED</description>
      <Point>
        <coordinates>151.3500,-32.8334,0</coordinates>
      </Point>
    </Placemark>
    <Placemark>
      <name>NAREMBURN</name>
      <description>Date/Time: 1944-11-29 07:00:00
Details:  TORNADO, TILES TORN FROM ROOFS, BRICK WALLS CRACKED</description>
      <Point>
        <coordinates>151.2167,-33.8834,0</coordinates>
      </Point>
    </Placemark>
    <Placemark>
      <name>ASHFIELD</name>
      <description>Date/Time: 1944-12-05 14:00:00
Details: TORNADO</description>
      <Point>
        <coordinates>151.2167,-33.8834,0</coordinates>
      </Point>
    </Placemark>
    <Placemark>
      <name>WAVERLY</name>
      <description>Date/Time: 1944-12-20 14:00:00
Details:  LASTED 5 MINUTES, DAMAGE TRAIL THRU SUBURBS, 1 SIDE OF ST BADLY DAMAGED, OTHER SIDE LIGHT DMGE</description>
      <Point>
        <coordinates>151.2167,-33.8834,0</coordinates>
      </Point>
    </Placemark>
    <Placemark>
      <name>WYONG</name>
      <description>Date/Time: 1945-02-20 14:00:00
Details: TORNADO</description>
      <Point>
        <coordinates>151.4333,-33.2833,0</coordinates>
      </Point>
    </Placemark>
    <Placemark>
      <name>COBAR</name>
      <description>Date/Time: 1945-02-26 14:00:00
Details: TORNADO</description>
      <Point>
        <coordinates>145.5000,-31.5000,0</coordinates>
      </Point>
    </Placemark>
    <Placemark>
      <name>GRAFTON</name>
      <description>Date/Time: 1945-03-06 14:00:00
Details:  TORNADO, SEVERAL BLDNGS DAMAGED, CHURCH MOVED ON FOUNDATIONS, LASTED 1/2 HR, DAMAGE 1/4 MILE WIDE</description>
      <Point>
        <coordinates>152.9334,-29.6833,0</coordinates>
      </Point>
    </Placemark>
    <Placemark>
      <name>WOODBURN</name>
      <description>Date/Time: 1945-04-07 14:00:00
Details:  TORNADO, EXTENSIVE STRUCTURAL DAMAGE</description>
      <Point>
        <coordinates>153.3500,-29.0667,0</coordinates>
      </Point>
    </Placemark>
    <Placemark>
      <name>LIVERPOOL</name>
      <description>Date/Time: 1945-11-17 14:00:00
Details:  TORNADO, UNROOFED AND DAMAGED 00'S OF HOUSES, 1 HOME WRECKED</description>
      <Point>
        <coordinates>150.9334,-33.9334,0</coordinates>
      </Point>
    </Placemark>
    <Placemark>
      <name>DEE WHY</name>
      <description>Date/Time: 1946-12-06 04:40:00
Details:  TORNADO, SEVERAL BUILDINGS WRECKED, UPROOTED TREES</description>
      <Point>
        <coordinates>151.2167,-33.8834,0</coordinates>
      </Point>
    </Placemark>
    <Placemark>
      <name>INVERELL</name>
      <description>Date/Time: 1947-01-13 14:00:00
Details:  TORNADO, CARRIED 1000 FOWL INTO AIR, DEMOLISHED 4 SHEDS, STRIPPED WALLS OFF 4 OTHERS</description>
      <Point>
        <coordinates>151.1167,-29.7667,0</coordinates>
      </Point>
    </Placemark>
    <Placemark>
      <name>BELLIGEN</name>
      <description>Date/Time: 1948-08-19 14:00:00
Details: TORNADO</description>
      <Point>
        <coordinates>152.9000,-30.4500,0</coordinates>
      </Point>
    </Placemark>
    <Placemark>
      <name>CROYDON</name>
      <description>Date/Time: 1948-08-25 14:00:00
Details: TORNADO</description>
      <Point>
        <coordinates>151.2167,-33.8834,0</coordinates>
      </Point>
    </Placemark>
    <Placemark>
      <name>TAMWORTH</name>
      <description>Date/Time: 1949-01-10 06:00:00
Details:  TORNADO, UNROOFED 5 HOMES, DEST. 2 PORTABLE CLASSROOMS, 00'S TREES SNAPPED OR UPROOTED</description>
      <Point>
        <coordinates>150.9334,-31.0833,0</coordinates>
      </Point>
    </Placemark>
    <Placemark>
      <name>NEWCASTLE</name>
      <description>Date/Time: 1949-09-29 14:00:00
Details:  TORNADO, TIME ESTIMATED, LASTED FEW MINUTES, TORE HOOD FROM CAR, MOVED ANOTHER 3 FEET</description>
      <Point>
        <coordinates>151.7667,-32.9334,0</coordinates>
      </Point>
    </Placemark>
    <Placemark>
      <name>ABBOTSFORD</name>
      <description>Date/Time: 1949-11-26 14:00:00
Details:  TORNADO, SMALL FISH CARRIED ABOUT 500 YDS, ROOF OF COTTAGE LIFTED OFF AND CARRIED 300 YDS</description>
      <Point>
        <coordinates>151.2167,-33.8834,0</coordinates>
      </Point>
    </Placemark>
    <Placemark>
      <name>TAMWORTH</name>
      <description>Date/Time: 1950-01-08 05:40:00
Details:  TORNADO, 1 FATALITY</description>
      <Point>
        <coordinates>150.9334,-31.0833,0</coordinates>
      </Point>
    </Placemark>
    <Placemark>
      <name>THUDDUNGRA</name>
      <description>Date/Time: 1950-05-26 10:00:00
Details:  TORNADO, LIFTED HALL OFF ITS BLOCKS AND DEST., 200 YDS WIDE</description>
      <Point>
        <coordinates>148.0833,-34.1333,0</coordinates>
      </Point>
    </Placemark>
    <Placemark>
      <name>SANS SOUCI</name>
      <description>Date/Time: 1950-06-14 14:00:00
Details:  TORNADO, UNROOFED SHOP</description>
      <Point>
        <coordinates>151.2167,-33.8834,0</coordinates>
      </Point>
    </Placemark>
    <Placemark>
      <name>LA PEROUSE</name>
      <description>Date/Time: 1951-07-18 14:00:00
Details:  TORNADO, DAMAGE 300YDS x 30YDS</description>
      <Point>
        <coordinates>150.7500,-33.6000,0</coordinates>
      </Point>
    </Placemark>
    <Placemark>
      <name>NEWCASTLE</name>
      <description>Date/Time: 1951-11-13 14:00:00
Details: TORNADO</description>
      <Point>
        <coordinates>151.7667,-32.9334,0</coordinates>
      </Point>
    </Placemark>
    <Placemark>
      <name>HAWKESBURY  (CLARENDON)</name>
      <description>Date/Time: 1951-12-06 14:00:00
Details:  TORNADO, TERRIFIC ROAR, BUILDING DAMAGE AT CLARENDON, TREES SNAPPED OFF</description>
      <Point>
        <coordinates>150.7833,-33.6167,0</coordinates>
      </Point>
    </Placemark>
    <Placemark>
      <name>WAVERLY</name>
      <description>Date/Time: 1951-12-09 14:00:00
Details:  TORNADO, ROOF LIFTED OFF</description>
      <Point>
        <coordinates>151.2167,-33.8834,0</coordinates>
      </Point>
    </Placemark>
    <Placemark>
      <name>ASHBURY/LILYFIELD</name>
      <description>Date/Time: 1951-12-16 01:30:00
Details:  TORNADO, UNROOFED 2 HOUSES, ROARING NOISE, LASTED FEW SECONDS</description>
      <Point>
        <coordinates>151.2167,-33.8834,0</coordinates>
      </Point>
    </Placemark>
    <Placemark>
      <name>CARRATHOOL</name>
      <description>Date/Time: 1952-01-23 03:30:00
Details: TORNADO</description>
      <Point>
        <coordinates>145.4333,-34.3167,0</coordinates>
      </Point>
    </Placemark>
    <Placemark>
      <name>CASINO</name>
      <description>Date/Time: 1952-01-30 14:00:00
Details:  TORNADO, UNROOFED BUILDINGS, BLEW DOWN POWER LINES, CUT A SWATHE A BLOCK WIDE</description>
      <Point>
        <coordinates>153.0500,-28.8667,0</coordinates>
      </Point>
    </Placemark>
    <Placemark>
      <name>HURSTVILLE</name>
      <description>Date/Time: 1952-02-09 14:00:00
Details:  TORNADO, TORE A 40' SQUARE ROOF OFF A 2 STOREY BLDNG, LASTED A FEW SECONDS</description>
      <Point>
        <coordinates>151.2167,-33.8834,0</coordinates>
      </Point>
    </Placemark>
    <Placemark>
      <name>BONDI JUNCTION</name>
      <description>Date/Time: 1952-08-14 11:15:00
Details:  TORNADO, DAMAGED BUILDINGS, GARAGES COLLAPSED, WOMAN CARRIED 20 YDS ALONG STREET</description>
      <Point>
        <coordinates>151.2167,-33.8834,0</coordinates>
      </Point>
    </Placemark>
    <Placemark>
      <name>MANGROVE MOUNTAIN</name>
      <description>Date/Time: 1953-01-10 14:00:00
Details:  TORNADO, TREES UPROOTED OR SNAPPED OFF, HAIL FELL IN PATH 1.5 MILES WIDE x 6-7 MILES LONG</description>
      <Point>
        <coordinates>151.2000,-33.3000,0</coordinates>
      </Point>
    </Placemark>
    <Placemark>
      <name>MOSS VALE</name>
      <description>Date/Time: 1953-11-04 14:00:00
Details:  TORNADO, ROOF TORN OFF HOMESTEAD, 000'S POUNDS DAMAGE</description>
      <Point>
        <coordinates>150.3833,-34.5333,0</coordinates>
      </Point>
    </Placemark>
    <Placemark>
      <name>COWRA</name>
      <description>Date/Time: 1953-11-05 05:00:00
Details:  TORNADO, 3 HOUSES WRECKED 100 OTHERS SERIOUSLY DAMAGED, 200 YDS WIDE, DEAFENING NOISE</description>
      <Point>
        <coordinates>148.6833,-33.8334,0</coordinates>
      </Point>
    </Placemark>
    <Placemark>
      <name>NEWCASTLE</name>
      <description>Date/Time: 1953-11-09 14:00:00
Details:  TORNADO, 2 ROOFS TORN OFF, CAT CARRIED INTO AIR</description>
      <Point>
        <coordinates>151.7667,-32.9334,0</coordinates>
      </Point>
    </Placemark>
    <Placemark>
      <name>ARMIDALE</name>
      <description>Date/Time: 1954-02-27 14:00:00
Details: TORNADO</description>
      <Point>
        <coordinates>151.6667,-30.5167,0</coordinates>
      </Point>
    </Placemark>
    <Placemark>
      <name>ROSE BAY/BELMORE (1415)</name>
      <description>Date/Time: 1954-10-18 04:30:00
Details:  TORNADO, SHED ROOF CARRIED AWAY, FENCES DOWN, STEEL PLATFORMS LIFTED AND SMASHED, 21 HOUSES UNROOFED</description>
      <Point>
        <coordinates>151.2167,-33.8834,0</coordinates>
      </Point>
    </Placemark>
    <Placemark>
      <name>DUBBO</name>
      <description>Date/Time: 1954-11-13 14:00:00
Details:  TORNADO, TIGER MOTH PLANE WRECKED, ROOFS CARRIED AWAY, 000'S POUNDS DAMAGE</description>
      <Point>
        <coordinates>148.6167,-32.2500,0</coordinates>
      </Point>
    </Placemark>
    <Placemark>
      <name>MIRANDA</name>
      <description>Date/Time: 1954-11-19 14:00:00
Details:  TORNADO, ROOF RIPPED OFF HOUSE</description>
      <Point>
        <coordinates>151.1000,-34.0333,0</coordinates>
      </Point>
    </Placemark>
    <Placemark>
      <name>WALCHA AREA</name>
      <description>Date/Time: 1955-02-01 03:30:00
Details:  DAMAGE PATH LENGTH 20 KM, WIDTH 20 M. LARGE TREES FLATTENED AND TWISTED OFF. NO STRUCTURES DAMAGED ALONG PATH.</description>
      <Point>
        <coordinates>151.5833,-30.9834,0</coordinates>
      </Point>
    </Placemark>
    <Placemark>
      <name>PARRAMATTA</name>
      <description>Date/Time: 1955-11-22 14:00:00
Details:  TORNADO, ONE HOUSE WRECKED, BIG TREES UPROOTED, DAMAGE 4 MILES LONG x 1/4 MILE WIDE</description>
      <Point>
        <coordinates>151.0167,-33.8167,0</coordinates>
      </Point>
    </Placemark>
    <Placemark>
      <name>NEWCASTLE</name>
      <description>Date/Time: 1955-12-06 08:50:00
Details: TORNADO</description>
      <Point>
        <coordinates>151.7667,-32.9334,0</coordinates>
      </Point>
    </Placemark>
    <Placemark>
      <name>RICHMOND</name>
      <description>Date/Time: 1956-02-20 00:30:00
Details:  TORNADO, ROARING NOISE</description>
      <Point>
        <coordinates>150.7500,-33.6000,0</coordinates>
      </Point>
    </Placemark>
    <Placemark>
      <name>LEICHARDT</name>
      <description>Date/Time: 1956-10-30 14:00:00
Details: TORNADO</description>
      <Point>
        <coordinates>151.2167,-33.8834,0</coordinates>
      </Point>
    </Placemark>
    <Placemark>
      <name>OAKLANDS</name>
      <description>Date/Time: 1956-12-12 14:00:00
Details: TORNADO</description>
      <Point>
        <coordinates>146.2000,-35.6000,0</coordinates>
      </Point>
    </Placemark>
    <Placemark>
      <name>PADSTOW</name>
      <description>Date/Time: 1956-12-25 14:00:00
Details:  TORNADO, TORE IRON ROOFS OFF SEVERAL SHEDS, WASHING BLOWN OVER 1/4 MILE, LASTED FEW SECONDS</description>
      <Point>
        <coordinates>151.2167,-33.8834,0</coordinates>
      </Point>
    </Placemark>
    <Placemark>
      <name>VALERY</name>
      <description>Date/Time: 1957-01-08 14:00:00
Details: TORNADO</description>
      <Point>
        <coordinates>152.9500,-30.4000,0</coordinates>
      </Point>
    </Placemark>
    <Placemark>
      <name>GUILDFORD</name>
      <description>Date/Time: 1957-01-09 14:00:00
Details:  TORNADO, TORE PART OF ROOF OFF HOUSE</description>
      <Point>
        <coordinates>150.7500,-33.6000,0</coordinates>
      </Point>
    </Placemark>
    <Placemark>
      <name>PENRITH</name>
      <description>Date/Time: 1957-01-10 03:30:00
Details:  TORNADO, ROOF OF BANK COLLAPSED, COULD BE HEARD 1/2 MILE AWAY, LASTED 10 MINUTES</description>
      <Point>
        <coordinates>150.7000,-33.7500,0</coordinates>
      </Point>
    </Placemark>
    <Placemark>
      <name>MOULAMEIN</name>
      <description>Date/Time: 1957-03-13 07:00:00
Details:  2 TORNADOES, HOUSE &amp; WOOLSHED UNROOFED</description>
      <Point>
        <coordinates>144.1333,-35.0500,0</coordinates>
      </Point>
    </Placemark>
    <Placemark>
      <name>WARRIEWOOD</name>
      <description>Date/Time: 1957-07-08 23:30:00
Details:  TORNADO, HOUSES UNROOFED, MOVED COMPLETE FIBRO HOUSES 15' OFF FOUNDATIONS, 1/4 MILE WIDE DAMAGE PATH</description>
      <Point>
        <coordinates>151.2167,-33.8834,0</coordinates>
      </Point>
    </Placemark>
    <Placemark>
      <name>SYDNEY</name>
      <description>Date/Time: 1957-10-06 14:00:00
Details:  TORNADO LIFTS CAR OUT OF CAR PARK - DUMPS IN CREEK, HOUSE DAMAGE</description>
      <Point>
        <coordinates>151.2167,-33.8834,0</coordinates>
      </Point>
    </Placemark>
    <Placemark>
      <name>TWEED RIVER</name>
      <description>Date/Time: 1957-10-27 14:00:00
Details:  TORNADO, 9OF HAIL+2&quot;RAIN/ &lt;1HR&quot;</description>
      <Point>
        <coordinates>153.5500,-28.1667,0</coordinates>
      </Point>
    </Placemark>
    <Placemark>
      <name>CRONULLA</name>
      <description>Date/Time: 1957-11-08 03:00:00
Details:  250,000 POUNDS DAMAGE, 3 COTTAGES &amp; HALL DESTROYED</description>
      <Point>
        <coordinates>151.1500,-34.0500,0</coordinates>
      </Point>
    </Placemark>
    <Placemark>
      <name>CAMDEN</name>
      <description>Date/Time: 1957-11-19 14:00:00
Details:  TORNADO, ROOF LIFTED OFF SERVICE STATION</description>
      <Point>
        <coordinates>150.7000,-34.0500,0</coordinates>
      </Point>
    </Placemark>
    <Placemark>
      <name>WOY WOY</name>
      <description>Date/Time: 1957-12-01 14:00:00
Details: TORNADO</description>
      <Point>
        <coordinates>151.3333,-33.4833,0</coordinates>
      </Point>
    </Placemark>
    <Placemark>
      <name>CAMPSIE</name>
      <description>Date/Time: 1957-12-26 14:00:00
Details:  TORNADO, 50 SHEETS IRON + 500 SLATES TORN OFF ROOF AND CARRIED 00'S YDS</description>
      <Point>
        <coordinates>151.2167,-33.8834,0</coordinates>
      </Point>
    </Placemark>
    <Placemark>
      <name>CASINO</name>
      <description>Date/Time: 1958-01-12 14:00:00
Details:  TORNADO, 2000 HOUSES DAMAGED, ROOFS LIFTED OFF, HEN EGG SIZE HAIL, TREE DAMAGE</description>
      <Point>
        <coordinates>153.0500,-28.8667,0</coordinates>
      </Point>
    </Placemark>
    <Placemark>
      <name>SYDNEY</name>
      <description>Date/Time: 1958-01-19 06:20:00
Details:  TORNADO, HOUSES UNROOFED, BRICK WALLS DOWN, 80 CRAFT ON HARBOUR OVERTURNED, 6mm/10 MINS AT CONCORD</description>
      <Point>
        <coordinates>151.2167,-33.8834,0</coordinates>
      </Point>
    </Placemark>
    <Placemark>
      <name>SYDNEY</name>
      <description>Date/Time: 1958-03-04 14:00:00
Details:  TORNADO, LOCAL FLOODING</description>
      <Point>
        <coordinates>151.2167,-33.8834,0</coordinates>
      </Point>
    </Placemark>
    <Placemark>
      <name>KOLODONG (TAREE)</name>
      <description>Date/Time: 1959-03-17 04:30:00
Details:  20 HOMES+SCHOOL WRECKED,TREES TWISTED TO SPLINTERS (IS THIS SAME AS 17/3/58 ??)</description>
      <Point>
        <coordinates>152.4167,-31.9000,0</coordinates>
      </Point>
    </Placemark>
    <Placemark>
      <name>BELLAMBI</name>
      <description>Date/Time: 1959-06-03 14:00:00
Details:  TORNADO, UNROOFED TILES, DAMAGED A CAR, HURLED BOY FROM STEPS OF HOUSE, LASTED TWO MINUTES</description>
      <Point>
        <coordinates>150.9000,-34.3500,0</coordinates>
      </Point>
    </Placemark>
    <Placemark>
      <name>CROOKHAVEN</name>
      <description>Date/Time: 1959-07-20 14:00:00
Details:  TIME EST., GIVEN AS EARLY MORNING, TREES 1' THICK SNAPPED IN A BELT 50 YDS WIDE, CARAVAN OVERTURNED</description>
      <Point>
        <coordinates>150.7667,-34.9000,0</coordinates>
      </Point>
    </Placemark>
    <Placemark>
      <name>TUGGERAH LAKES</name>
      <description>Date/Time: 1959-09-19 05:30:00
Details:  SEV DMGD OR DEST. 400 HOMES, 6 MI LONG x 1/2 MI WIDE, WIND EST., 2 HRS BEF SUNSET,LIFTED WATER 100' INTO AIR</description>
      <Point>
        <coordinates>151.4167,-33.3167,0</coordinates>
      </Point>
    </Placemark>
    <Placemark>
      <name>BONDI BEACH</name>
      <description>Date/Time: 1959-10-24 02:30:00
Details:  TORNADO, 50' WIDE, MOVED 500 YDS IN 4 MINS, LIFTED BEACH UMBRELLAS UP TO 100'</description>
      <Point>
        <coordinates>151.2167,-33.8834,0</coordinates>
      </Point>
    </Placemark>
    <Placemark>
      <name>SMITHFIELD</name>
      <description>Date/Time: 1959-10-30 02:50:00
Details:  TORNADO, 200 YDS IN DIAMETER, LASTED 5 MINS, ONE HOME WRECKED 2 OTHERS UNROOFED, LARGE TREES SNAPPED/UPROOTED</description>
      <Point>
        <coordinates>150.9334,-33.8500,0</coordinates>
      </Point>
    </Placemark>
    <Placemark>
      <name>EASTWOOD/DURAL</name>
      <description>Date/Time: 1959-11-04 03:30:00
Details:  TORNADO, CONSIDERABLE DAMAGE PATH 1 MILE LONG, 1 HOUSE UNROOFED, A BARN COLLAPSED</description>
      <Point>
        <coordinates>151.2167,-33.8834,0</coordinates>
      </Point>
    </Placemark>
    <Placemark>
      <name>DURAL</name>
      <description>Date/Time: 1959-11-29 14:00:00
Details:  TORNADO DAMAGE PATH 400 YARDS WIDE, UPROOTED 60' TREES, BUILDING DAMAGE</description>
      <Point>
        <coordinates>151.0500,-33.6833,0</coordinates>
      </Point>
    </Placemark>
    <Placemark>
      <name>SYDNEY</name>
      <description>Date/Time: 1959-12-18 05:30:00
Details:  BUILDINGS UNROOFED/WRECKED, POWER LINES DOWN</description>
      <Point>
        <coordinates>151.2167,-33.8834,0</coordinates>
      </Point>
    </Placemark>
    <Placemark>
      <name>MT KEMBLA/CORDEAUX RIVER</name>
      <description>Date/Time: 1959-12-25 14:00:00
Details:  1 HOUSE UNROOFED, DEST. ANOTHER HOUSE &amp; SEVERAL FARM BLDNGS,LIFTED TRUCK 2' OFF GRND, UPROOTED 00'S TREES</description>
      <Point>
        <coordinates>150.6833,-34.2667,0</coordinates>
      </Point>
    </Placemark>
    <Placemark>
      <name>YOUNG</name>
      <description>Date/Time: 1960-09-23 14:00:00
Details:  TORNADO, 3 MILES LONG x 1/2 MILE WIDE, HOUSES UNROOFED, SHEDS FLATTENED, SMALL TREES UPROOTED</description>
      <Point>
        <coordinates>148.3000,-34.3167,0</coordinates>
      </Point>
    </Placemark>
    <Placemark>
      <name>DUNGOG</name>
      <description>Date/Time: 1960-12-02 14:00:00
Details:  12 MI LONG x 300 YDS WI,2 HOUSES DEST/4 UNRFD,MANY OUTBLDNGS CARRIED AWAY,LIFT CAR OFF GRND,BENT STEEL POLES</description>
      <Point>
        <coordinates>151.7500,-33.4000,0</coordinates>
      </Point>
    </Placemark>
    <Placemark>
      <name>AUBURN</name>
      <description>Date/Time: 1961-02-19 02:00:00
Details:  TORNADO, 300 YDS LONG &amp; NARROW, BLDNGS UNROOFED, CHIMNEY &amp; GARAGE DEST.,IRON ROOF SHEETS CARIED 1.5 MILES AWAY</description>
      <Point>
        <coordinates>151.2167,-33.8834,0</coordinates>
      </Point>
    </Placemark>
    <Placemark>
      <name>BALGOWLAH</name>
      <description>Date/Time: 1961-06-11 14:00:00
Details: TORNADO</description>
      <Point>
        <coordinates>151.2167,-33.8834,0</coordinates>
      </Point>
    </Placemark>
    <Placemark>
      <name>MASCOT</name>
      <description>Date/Time: 1961-11-30 08:30:00
Details:  TORNADO, AIRCRAFT CRASHED, 15 DEAD</description>
      <Point>
        <coordinates>151.2167,-33.8834,0</coordinates>
      </Point>
    </Placemark>
    <Placemark>
      <name>RICHMOND</name>
      <description>Date/Time: 1962-02-04 14:00:00
Details:  FUNNEL CLOUD SEEN, NO DAMAGE</description>
      <Point>
        <coordinates>150.7500,-33.6000,0</coordinates>
      </Point>
    </Placemark>
    <Placemark>
      <name>NEWCASTLE</name>
      <description>Date/Time: 1962-05-11 14:00:00
Details:  TORNADO, DAMAGED 6 HOUSES, TORE THE COMPLETE SIDE FROM 1 HOUSE AND HURLED IT INTO AIR</description>
      <Point>
        <coordinates>151.7667,-32.9334,0</coordinates>
      </Point>
    </Placemark>
    <Placemark>
      <name>PORT MACQUARIE</name>
      <description>Date/Time: 1962-07-09 02:55:00
Details:  2 TORNADOES, DAMAGE 2 MILES LONG x 100 YDS WIDE, 3 DEAD, 6000 POUNDS DAMAGE,2 STOREY BLDNG DEST.,30 HOMES DMGD</description>
      <Point>
        <coordinates>152.9167,-31.4500,0</coordinates>
      </Point>
    </Placemark>
    <Placemark>
      <name>WOODVIEW/CASINO</name>
      <description>Date/Time: 1962-11-11 14:00:00
Details:  CRICKET BALL HAIL, DAMAGE PATH 5 MILES LONG x 220-440 YDS WIDE, HOUSES FLATTENED, TREES SNAPPED OFF</description>
      <Point>
        <coordinates>153.0500,-28.8667,0</coordinates>
      </Point>
    </Placemark>
    <Placemark>
      <name>NEWINGBAR (NEAR LISMORE)</name>
      <description>Date/Time: 1963-01-03 14:00:00
Details:  TORNADO, WIND EST., 4 HOMES DESTROYED</description>
      <Point>
        <coordinates>153.1667,-28.8167,0</coordinates>
      </Point>
    </Placemark>
    <Placemark>
      <name>BRACKEN HILLS</name>
      <description>Date/Time: 1963-01-04 02:00:00
Details:  TORNADO, DAMAGE 6 MILES LONG x 200 YDS WIDE, WOOLSHED &amp; FENCING WRECKED, TREES UPROOTED</description>
      <Point>
        <coordinates>151.0000,-30.6667,0</coordinates>
      </Point>
    </Placemark>
    <Placemark>
      <name>GILMORE</name>
      <description>Date/Time: 1963-08-22 07:30:00
Details:  TORNADO, WRECKED MOST OF TIMBER MILL, 8 CARS BADLY DAMAGED, LIFTED ROOFS, SCATTERED 100000 SUPER FT OF TIMBER</description>
      <Point>
        <coordinates>148.1833,-35.3333,0</coordinates>
      </Point>
    </Placemark>
    <Placemark>
      <name>MERRYLANDS</name>
      <description>Date/Time: 1963-08-28 14:00:00
Details:  TORNADO, DAMAGED 40 HOUSES IN 1/4 MILE RADIUS, 12 FT BRICK WALL &amp; HEAVY GATES KNOCKED OVER</description>
      <Point>
        <coordinates>150.9834,-33.8334,0</coordinates>
      </Point>
    </Placemark>
    <Placemark>
      <name>NARRABEEN</name>
      <description>Date/Time: 1963-11-16 05:00:00
Details:  TORNADO, LASTED 15 MINS, UNROOFED HOUSES, OVERTURNED CARAVANS, 1 MILE LONG x 150 FT WIDE</description>
      <Point>
        <coordinates>151.2167,-33.8834,0</coordinates>
      </Point>
    </Placemark>
    <Placemark>
      <name>FREDERICKTON</name>
      <description>Date/Time: 1964-01-25 14:00:00
Details:  TIME GIVEN AS AFTERNOON, 1/4 MILE WIDE, HOUSES UNROOFED, FENCES SMASHED, TREES FELLED, HAIL &amp; TORRENTIAL RAIN</description>
      <Point>
        <coordinates>152.8667,-31.0333,0</coordinates>
      </Point>
    </Placemark>
    <Placemark>
      <name>RICHMOND</name>
      <description>Date/Time: 1964-04-22 07:00:00
Details: TORNADO</description>
      <Point>
        <coordinates>150.7500,-33.6000,0</coordinates>
      </Point>
    </Placemark>
    <Placemark>
      <name>CARLINGFORD</name>
      <description>Date/Time: 1964-06-09 08:35:00
Details: TORNADO</description>
      <Point>
        <coordinates>151.2167,-33.8834,0</coordinates>
      </Point>
    </Placemark>
    <Placemark>
      <name>COOLAMON</name>
      <description>Date/Time: 1964-06-21 08:00:00
Details:  20,000 POUNDS DAMAGE, MANY HOUSES UNROOFED, SOME BUILDINGS DEMOLISHED, TREES UPROOTED- TOPS TWISTED OFF</description>
      <Point>
        <coordinates>147.2000,-34.8167,0</coordinates>
      </Point>
    </Placemark>
    <Placemark>
      <name>COOTAMUNDRA</name>
      <description>Date/Time: 1964-06-30 14:00:00
Details:  TORNADO, 1/2 MILE WIDE,TWISTED WIND MILLS, FLATTENEED FENCES/DAMAGED BLDNGS,ROAR HEARD,TREES UPROOTED</description>
      <Point>
        <coordinates>148.0333,-34.6333,0</coordinates>
      </Point>
    </Placemark>
    <Placemark>
      <name>BEVERLY HILLS</name>
      <description>Date/Time: 1964-07-15 14:00:00
Details:  TORNADO,ROOF BLOWN OFF LAUNDRY, TERRIFIC ROAR</description>
      <Point>
        <coordinates>151.2167,-33.8834,0</coordinates>
      </Point>
    </Placemark>
    <Placemark>
      <name>HOMEBUSH</name>
      <description>Date/Time: 1964-08-23 14:00:00
Details:  TORNADO,5000 SQ. FT STEEL ROOFING LIFTED OFF,FORKLIFT IN FACTORY PUSHED OUT THRU DOOR</description>
      <Point>
        <coordinates>151.2167,-33.8834,0</coordinates>
      </Point>
    </Placemark>
    <Placemark>
      <name>SMITHTOWN</name>
      <description>Date/Time: 1964-08-23 15:30:00
Details:  DMGE 1.5 MI LONG x 25-50' WIDE,FARM SHEDS DEST.,3 HSES UNRFD 3 MORE DEST.,HSE PIVOTED 180 DEG,WIND EST</description>
      <Point>
        <coordinates>152.9500,-31.0167,0</coordinates>
      </Point>
    </Placemark>
    <Placemark>
      <name>SCHOFIELDS</name>
      <description>Date/Time: 1965-01-01 14:00:00
Details:  TORNADO, DESTROYED POULTRY SHED TORE OFF ROOF &amp; RIPPED TIMBER FRAMEWORK APART</description>
      <Point>
        <coordinates>150.8667,-33.7000,0</coordinates>
      </Point>
    </Placemark>
    <Placemark>
      <name>NEWCASTLE</name>
      <description>Date/Time: 1965-05-13 14:00:00
Details:  TORNADO, TORE ROOF OFF TIMBER/FIBRO HOUSE, BLEW DOWN OUTER WALLS</description>
      <Point>
        <coordinates>151.7667,-32.9334,0</coordinates>
      </Point>
    </Placemark>
    <Placemark>
      <name>THE ENTRANCE</name>
      <description>Date/Time: 1965-11-02 14:00:00
Details:  TORNADO, 6 COTTAGES ON FORESHORE UNROOFED, TREES UPROOTED</description>
      <Point>
        <coordinates>151.5000,-33.3500,0</coordinates>
      </Point>
    </Placemark>
    <Placemark>
      <name>TAMARAMA/BRONTE</name>
      <description>Date/Time: 1966-04-27 05:00:00
Details:  TORNADO, 2 MILE LONG x 30 YDS WIDE DAMAGE, MAJOR HOUSE DAMAGE</description>
      <Point>
        <coordinates>151.2167,-33.8834,0</coordinates>
      </Point>
    </Placemark>
    <Placemark>
      <name>THARWA/WILLIAMSDALE</name>
      <description>Date/Time: 1966-09-20 14:00:00
Details: TORNADO</description>
      <Point>
        <coordinates>149.0667,-35.5167,0</coordinates>
      </Point>
    </Placemark>
    <Placemark>
      <name>CANLEY VALE</name>
      <description>Date/Time: 1966-09-23 03:30:00
Details:  TORNADO, LASTED 2 MINUTES, RIPPED IRON SHEETS AND TILES OFF ROOFS, 100 YDS DAMAGE</description>
      <Point>
        <coordinates>151.2167,-33.8834,0</coordinates>
      </Point>
    </Placemark>
    <Placemark>
      <name>NEWCASTLE</name>
      <description>Date/Time: 1966-11-26 14:00:00
Details:  1 HOUSE COLLAPSED,MANY OTHERS UNROOFED OR DAMAGED,TREES &amp; A CAR TURNED OVER, 2 CARAVANS TURNED OVER</description>
      <Point>
        <coordinates>151.7667,-32.9334,0</coordinates>
      </Point>
    </Placemark>
    <Placemark>
      <name>SYDNEY</name>
      <description>Date/Time: 1966-11-27 06:00:00
Details:  TORNADO, UNROOFED 1 HOUSE, DAMAGED ROOFS OF 30 OTHERS, SHOP WINDOW BURST OUTWARD INJURING PASSER-BY</description>
      <Point>
        <coordinates>151.2167,-33.8834,0</coordinates>
      </Point>
    </Placemark>
    <Placemark>
      <name>ERINA/TERRIGAL</name>
      <description>Date/Time: 1966-12-05 05:00:00
Details:  WIND EST.,DAMAGE 4 MILES LONG x 50 YDS WIDE, SERIOUS DAMAGE TO SEVERAL HOUSES, TREES UPROOTED, 2 HOUSES DEST</description>
      <Point>
        <coordinates>151.4000,-33.4333,0</coordinates>
      </Point>
    </Placemark>
    <Placemark>
      <name>PORT MACQUARIE</name>
      <description>Date/Time: 1966-12-31 02:00:00
Details:  TORNADO, DAMAGE 1.75 MILE LONG x UP TO 1 MILE WIDE, UNROOFED HOUSES % UPROOTED TREES, MICROBURST ??</description>
      <Point>
        <coordinates>152.9167,-31.4500,0</coordinates>
      </Point>
    </Placemark>
    <Placemark>
      <name>TOCUMWAL/FINLEY/COBRAM</name>
      <description>Date/Time: 1967-01-28 08:00:00
Details:  TORNADO, WINDS EST., CRICKET BALL SIZE HAIL, DAMAGE</description>
      <Point>
        <coordinates>145.5667,-35.8167,0</coordinates>
      </Point>
    </Placemark>
    <Placemark>
      <name>MANGROVE MOUNTAIN</name>
      <description>Date/Time: 1968-02-07 05:15:00
Details:  TORNADO, DAMAGE 2 MILES LONG x 600 YDS WIDE, 1 HOME DEMOLISHED</description>
      <Point>
        <coordinates>151.2000,-33.3000,0</coordinates>
      </Point>
    </Placemark>
    <Placemark>
      <name>SYDNEY</name>
      <description>Date/Time: 1968-11-21 14:00:00
Details: TORNADO</description>
      <Point>
        <coordinates>151.2167,-33.8834,0</coordinates>
      </Point>
    </Placemark>
    <Placemark>
      <name>WAHROONGA</name>
      <description>Date/Time: 1969-04-15 10:00:00
Details: TORNADO</description>
      <Point>
        <coordinates>151.2167,-33.8834,0</coordinates>
      </Point>
    </Placemark>
    <Placemark>
      <name>DURAL</name>
      <description>Date/Time: 1969-12-22 04:00:00
Details: TORNADO</description>
      <Point>
        <coordinates>151.0500,-33.6833,0</coordinates>
      </Point>
    </Placemark>
    <Placemark>
      <name>BULADELAH</name>
      <description>Date/Time: 1970-01-01 03:45:00
Details:  TORNADO, 2800 ACRES AFFECTED, INCREDIBLE DAMAGE</description>
      <Point>
        <coordinates>152.2000,-32.4167,0</coordinates>
      </Point>
    </Placemark>
    <Placemark>
      <name>RICHMOND</name>
      <description>Date/Time: 1971-12-25 06:00:00
Details:  TORNADO CONSIDERED UNLIKELY, $3.5 MILLION ?</description>
      <Point>
        <coordinates>150.7500,-33.6000,0</coordinates>
      </Point>
    </Placemark>
    <Placemark>
      <name>LANGTREE</name>
      <description>Date/Time: 1972-02-15 14:00:00
Details: TORNADO 100 YARDS WIDE</description>
      <Point>
        <coordinates>145.5333,-33.6167,0</coordinates>
      </Point>
    </Placemark>
    <Placemark>
      <name>NERICON/GRIFFITH</name>
      <description>Date/Time: 1972-02-16 05:45:00
Details: TORNADO</description>
      <Point>
        <coordinates>146.0500,-34.2167,0</coordinates>
      </Point>
    </Placemark>
    <Placemark>
      <name>OAK FLATS</name>
      <description>Date/Time: 1972-02-17 06:00:00
Details:  TORNADO, $445100, DESTROYS HOMES UNROOFS 40 MORE, BOATS LIFTED OFF WATER</description>
      <Point>
        <coordinates>150.8167,-34.5667,0</coordinates>
      </Point>
    </Placemark>
    <Placemark>
      <name>SPRINGTERRACE</name>
      <description>Date/Time: 1972-02-19 00:30:00
Details: TORNADIC SQUALL</description>
      <Point>
        <coordinates>149.1000,-33.4000,0</coordinates>
      </Point>
    </Placemark>
    <Placemark>
      <name>HENTY</name>
      <description>Date/Time: 1972-03-02 06:10:00
Details:  TORNADO, ONE THIRD OF HOUSES UNROOFED</description>
      <Point>
        <coordinates>147.0333,-35.5167,0</coordinates>
      </Point>
    </Placemark>
    <Placemark>
      <name>KINGSFORD/ROCKDALE</name>
      <description>Date/Time: 1972-03-06 17:00:00
Details: TORNADO</description>
      <Point>
        <coordinates>151.2167,-33.8834,0</coordinates>
      </Point>
    </Placemark>
    <Placemark>
      <name>BTN URALLA/BENDEMEER (YALTA)</name>
      <description>Date/Time: 1972-11-06 01:15:00
Details: TORNADO</description>
      <Point>
        <coordinates>151.4167,-30.7500,0</coordinates>
      </Point>
    </Placemark>
    <Placemark>
      <name>BROKEN HILL</name>
      <description>Date/Time: 1973-01-13 14:00:00
Details: TORNADO PICKS UP CAR</description>
      <Point>
        <coordinates>141.4500,-31.9667,0</coordinates>
      </Point>
    </Placemark>
    <Placemark>
      <name>ELANORA HEIGHTS/NARRABEEN</name>
      <description>Date/Time: 1973-04-17 05:30:00
Details: LIKELY TORNADO</description>
      <Point>
        <coordinates>151.2167,-33.8834,0</coordinates>
      </Point>
    </Placemark>
    <Placemark>
      <name>SWANSEA</name>
      <description>Date/Time: 1973-05-01 07:00:00
Details: TORNADO</description>
      <Point>
        <coordinates>151.6333,-33.0833,0</coordinates>
      </Point>
    </Placemark>
    <Placemark>
      <name>BALLINA</name>
      <description>Date/Time: 1973-06-27 14:00:00
Details: TORNADO</description>
      <Point>
        <coordinates>153.5667,-28.8667,0</coordinates>
      </Point>
    </Placemark>
    <Placemark>
      <name>CUDMIRRAH/SUSSEX INLET</name>
      <description>Date/Time: 1973-10-19 14:00:00
Details:  POSSIBLE TORNADO, DAMAGE PATH UP TO 200 YARDS WIDE</description>
      <Point>
        <coordinates>150.5667,-35.2000,0</coordinates>
      </Point>
    </Placemark>
    <Placemark>
      <name>CUDMIRRAH</name>
      <description>Date/Time: 1973-10-29 09:30:00
Details:  TORNADO, DAMAGE PATH &lt; 200 YDS WIDE, 7 HOMES UNROOFED, POWER LINES DOWN</description>
      <Point>
        <coordinates>150.5667,-35.2000,0</coordinates>
      </Point>
    </Placemark>
    <Placemark>
      <name>RYDE</name>
      <description>Date/Time: 1973-11-02 03:30:00
Details:  TORNADO, $1 MILLION DAMAGE</description>
      <Point>
        <coordinates>151.2167,-33.8834,0</coordinates>
      </Point>
    </Placemark>
    <Placemark>
      <name>GOROKAN (NEAR WYONG)</name>
      <description>Date/Time: 1974-12-27 14:00:00
Details:  WIND EST 140 KM/H, 3 HOMES DEST/10 DAMG, IN A'NOON</description>
      <Point>
        <coordinates>151.5167,-33.2667,0</coordinates>
      </Point>
    </Placemark>
    <Placemark>
      <name>LENNOX HEAD</name>
      <description>Date/Time: 1975-03-01 23:30:00
Details: TORNADO</description>
      <Point>
        <coordinates>153.6000,-28.8000,0</coordinates>
      </Point>
    </Placemark>
    <Placemark>
      <name>BARHAM</name>
      <description>Date/Time: 1975-12-02 14:00:00
Details: TORNADO</description>
      <Point>
        <coordinates>144.1333,-35.6333,0</coordinates>
      </Point>
    </Placemark>
    <Placemark>
      <name>HURSTVILLE</name>
      <description>Date/Time: 1978-01-04 21:45:00
Details:  TORNADO, DAMAGE BILL $20,000, ROOFING IRON RIPPED OFF HOUSE</description>
      <Point>
        <coordinates>151.2167,-33.8834,0</coordinates>
      </Point>
    </Placemark>
    <Placemark>
      <name>DRUMMOYNE/HUNTERS HILL</name>
      <description>Date/Time: 1978-02-11 04:30:00
Details:  TORNADO, 1 ROOF LIFTED OFF HOUSE, MAX GUST 60 KT AT OBS. HILL</description>
      <Point>
        <coordinates>151.2167,-33.8834,0</coordinates>
      </Point>
    </Placemark>
    <Placemark>
      <name>ABERDEEN</name>
      <description>Date/Time: 1982-01-31 04:16:00
Details:  TORNADO, CRICKET BALL HAIL, RAIN ~50-150 mm/h, WIND EST 30-45 M/S, 2KM WIDE DAMAGE, TRANSMN TOWERS DOWN</description>
      <Point>
        <coordinates>150.8834,-32.1667,0</coordinates>
      </Point>
    </Placemark>
    <Placemark>
      <name>DUBBO</name>
      <description>Date/Time: 1983-03-15 14:00:00
Details:  MINI CYCLONE, $1.47 MILLION</description>
      <Point>
        <coordinates>148.6167,-32.2500,0</coordinates>
      </Point>
    </Placemark>
    <Placemark>
      <name>GLENARIFF</name>
      <description>Date/Time: 1983-09-05 06:30:00
Details:  TORNADO, $250,000 DAMAGE, SHEARING SHED + 3 CAR GARAGE DEST., DAMAGE 30 KM LONG x 300 M WIDE</description>
      <Point>
        <coordinates>146.6000,-30.7833,0</coordinates>
      </Point>
    </Placemark>
    <Placemark>
      <name>TWEED VALLEY/MCPHERSON RANGE</name>
      <description>Date/Time: 1983-09-07 14:00:00
Details:  EVENING, TORNADO</description>
      <Point>
        <coordinates>153.5500,-28.1667,0</coordinates>
      </Point>
    </Placemark>
    <Placemark>
      <name>OBERON</name>
      <description>Date/Time: 1983-09-14 14:00:00
Details:  TORNADO BADLY DAMAGED HOUSE, $30000 DAMAGE, UPROOTED TREES</description>
      <Point>
        <coordinates>149.8500,-33.7000,0</coordinates>
      </Point>
    </Placemark>
    <Placemark>
      <name>BURRAGA</name>
      <description>Date/Time: 1983-10-03 05:00:00
Details:  TORNADO, 6 CM HAIL, HOUSE BLOWN DOWN, CAR TRANSPORTED ACROSS RIVER</description>
      <Point>
        <coordinates>149.5333,-33.9500,0</coordinates>
      </Point>
    </Placemark>
    <Placemark>
      <name>SW, S &amp; FAR NW SUBURBS</name>
      <description>Date/Time: 1983-10-19 04:45:00
Details:  MINI TORNADO WISEMANS FERRY,GUST 62 KT RICHMOND,TAREN PT HOUSE UNROOFED, MANY HOMES DAMAGED</description>
      <Point>
        <coordinates>151.0000,-34.0000,0</coordinates>
      </Point>
    </Placemark>
    <Placemark>
      <name>RIVERSTONE/SCHOFIELDS</name>
      <description>Date/Time: 1984-02-07 07:00:00
Details:  ALSO WISEMAN'S FERRY, TORNADO, WIND GUSTS EST &gt; 48 KNOTS, $500,000 DAMAGE</description>
      <Point>
        <coordinates>150.8667,-33.6833,0</coordinates>
      </Point>
    </Placemark>
    <Placemark>
      <name>NORAH HEAD</name>
      <description>Date/Time: 1984-11-07 03:45:00
Details:  TORNADO.ROOF DAMAGE,TREES DOWN.BRICK WALLS BLOWN DOWN.100 M PATH.MOV FROM E TO W.</description>
      <Point>
        <coordinates>151.5833,-33.2833,0</coordinates>
      </Point>
    </Placemark>
    <Placemark>
      <name>LAKE MUNMORAH</name>
      <description>Date/Time: 1984-11-07 19:00:00
Details: 10'S OF $000'S DAMAGE</description>
      <Point>
        <coordinates>151.5667,-33.2333,0</coordinates>
      </Point>
    </Placemark>
    <Placemark>
      <name>MORTDALE</name>
      <description>Date/Time: 1984-11-07 22:00:00
Details: TORNADO</description>
      <Point>
        <coordinates>151.2167,-33.8834,0</coordinates>
      </Point>
    </Placemark>
    <Placemark>
      <name>PORT MACQUARIE</name>
      <description>Date/Time: 1985-09-10 14:00:00
Details:  TORNADO, $1 MILLION DAMAGE</description>
      <Point>
        <coordinates>152.9167,-31.4500,0</coordinates>
      </Point>
    </Placemark>
    <Placemark>
      <name>COOLAH</name>
      <description>Date/Time: 1985-10-09 02:30:00
Details: TORNADO</description>
      <Point>
        <coordinates>149.7167,-31.8333,0</coordinates>
      </Point>
    </Placemark>
    <Placemark>
      <name>WALLSEND (NEWCASTLE)</name>
      <description>Date/Time: 1985-10-16 14:00:00
Details: TORNADO</description>
      <Point>
        <coordinates>151.7667,-32.9334,0</coordinates>
      </Point>
    </Placemark>
    <Placemark>
      <name>TELEGRAPH POINT</name>
      <description>Date/Time: 1986-04-29 14:00:00
Details: TORNADO</description>
      <Point>
        <coordinates>152.8000,-31.3167,0</coordinates>
      </Point>
    </Placemark>
    <Placemark>
      <name>PENDLE HILL</name>
      <description>Date/Time: 1986-08-05 06:30:00
Details: TORNADO</description>
      <Point>
        <coordinates>150.9500,-33.8000,0</coordinates>
      </Point>
    </Placemark>
    <Placemark>
      <name>DUBBO</name>
      <description>Date/Time: 1986-11-16 14:00:00
Details: TORNADO</description>
      <Point>
        <coordinates>148.6167,-32.2500,0</coordinates>
      </Point>
    </Placemark>
    <Placemark>
      <name>BREADALBANE/YASS/GUNNING</name>
      <description>Date/Time: 1986-11-18 00:00:00
Details:  TORNADO, TRANS. TOWERS COLLAPSE, 10KM LONG x 500 M WIDE DAMAGE, ROTARY PATTERNS</description>
      <Point>
        <coordinates>148.9167,-34.8500,0</coordinates>
      </Point>
    </Placemark>
    <Placemark>
      <name>TAMWORTH/GUNNEDAH AREA</name>
      <description>Date/Time: 1987-11-20 03:30:00
Details:  $40 MILLION CROP DAMAGE, TORNADO, HEAVY DAMAGE, SHEEP IN TREES, 1 DEAD</description>
      <Point>
        <coordinates>150.9334,-31.0000,0</coordinates>
      </Point>
    </Placemark>
    <Placemark>
      <name>ROWENA</name>
      <description>Date/Time: 1987-11-20 05:18:00
Details:  LASTED 2 TO 5 MINUTES, 2 'NORMAL STORMS AT 1500'</description>
      <Point>
        <coordinates>148.9000,-29.8167,0</coordinates>
      </Point>
    </Placemark>
    <Placemark>
      <name>GUNNEDAH</name>
      <description>Date/Time: 1987-12-01 08:00:00
Details: CROP/TREE DAMAGE.KNOCKED OVER A STONE WALL.DAMAGED A WINDMILL. PHOTO TAKEN OF FUNNEL.</description>
      <Point>
        <coordinates>150.2500,-30.9834,0</coordinates>
      </Point>
    </Placemark>
    <Placemark>
      <name>KOORANGA (WEST OF BONSHAW)</name>
      <description>Date/Time: 1987-12-30 14:00:00
Details:  FUNNEL SEEN, ROOF OFF SHED, FROM JILL TAYLOR (FCO'S INV WIFE)</description>
      <Point>
        <coordinates>151.1667,-29.0500,0</coordinates>
      </Point>
    </Placemark>
    <Placemark>
      <name>ROWENA</name>
      <description>Date/Time: 1988-03-11 05:15:00
Details:  PROBABLE TORNADO, HOUSE WRECKED, SHEARING SHED FLIPPED OVER, CAR WINDOWS BLOWN IN ?</description>
      <Point>
        <coordinates>148.9000,-29.8167,0</coordinates>
      </Point>
    </Placemark>
    <Placemark>
      <name>TOUKLEY</name>
      <description>Date/Time: 1988-09-14 16:48:00
Details:  POSSIBLE TORNADO, MORE LIKELY WATERSPOUT</description>
      <Point>
        <coordinates>151.5333,-33.2667,0</coordinates>
      </Point>
    </Placemark>
    <Placemark>
      <name>PENRITH</name>
      <description>Date/Time: 1988-10-23 14:00:00
Details: WILLY WILLY LIFTS SECTION OFF ROOF</description>
      <Point>
        <coordinates>150.6667,-33.8834,0</coordinates>
      </Point>
    </Placemark>
    <Placemark>
      <name>BAWLEY POINT (SOUTH OF UDA)</name>
      <description>Date/Time: 1988-12-03 14:00:00
Details:  TORNADO LASTED 2 MINUTES,4 HOMES DAMAGED 2 EXTENSIVELY,ROOF OFF 1 HOUSE &gt; 200 M,DAMAGE BETWEEN $100-500,000</description>
      <Point>
        <coordinates>150.4000,-35.5167,0</coordinates>
      </Point>
    </Placemark>
    <Placemark>
      <name>COLEAMBALLY</name>
      <description>Date/Time: 1988-12-10 03:30:00
Details:  PROBABLE TORNADO OR VERY STRONG ST. LINE WINDS FROM TS, TRANSMISSION TOWER FAILURES</description>
      <Point>
        <coordinates>145.8333,-34.8334,0</coordinates>
      </Point>
    </Placemark>
    <Placemark>
      <name>ELSMORE (SE OF INVERELL)</name>
      <description>Date/Time: 1989-11-06 06:45:00
Details:  TORNADO (F3) DEST. 3 HOME, 12 OTHERS BEYOND REPAIR, TREE DAMAGE, WIND IS FROM ELSMORE (EST)</description>
      <Point>
        <coordinates>151.2833,-29.8000,0</coordinates>
      </Point>
    </Placemark>
    <Placemark>
      <name>BEN LOMOND</name>
      <description>Date/Time: 1989-11-06 07:30:00
Details:  TORNADO PATH 18 KM LONG AND UP TO 500 M WIDE, THIS TRACK 17 KM SE OF ELSMORE TRACK</description>
      <Point>
        <coordinates>151.2833,-29.8000,0</coordinates>
      </Point>
    </Placemark>
    <Placemark>
      <name>SYDNEY/GOSFORD/WOLLONGONG</name>
      <description>Date/Time: 1989-12-04 16:00:00
Details:  TORNADO? UNROOFS HOUSES AT BATEAU BAY,VERY HEAVY RAIN/FF ALL,200MM/3 HRS RYDE,273MM/24HRS FRENCH'S FOREST</description>
      <Point>
        <coordinates>151.2167,-33.8834,0</coordinates>
      </Point>
    </Placemark>
    <Placemark>
      <name>BARRABA</name>
      <description>Date/Time: 1989-12-07 05:30:00
Details:  LARGE TREES SNAPPED AND UPROOTED, DAMAGE TO PROPERTY. MOVED SW - NE, PATHLENGTH APPROX 2KM</description>
      <Point>
        <coordinates>150.6167,-30.3833,0</coordinates>
      </Point>
    </Placemark>
    <Placemark>
      <name>OBERON</name>
      <description>Date/Time: 1990-01-07 07:30:00
Details: TORNADO</description>
      <Point>
        <coordinates>149.8500,-33.7000,0</coordinates>
      </Point>
    </Placemark>
    <Placemark>
      <name>SOMERTON (S OF TAMWORTH)</name>
      <description>Date/Time: 1990-01-12 14:00:00
Details:  BETWEEN LAKE TEPID/MANILLA.POSS TORN?ROTATING CLOUDS.3 FUNNELS,TOUCH GROUND,1 TO 2 MINS.</description>
      <Point>
        <coordinates>150.6500,-30.9334,0</coordinates>
      </Point>
    </Placemark>
    <Placemark>
      <name>CHISHOLM (20 KM S OF CAN.CITY</name>
      <description>Date/Time: 1990-01-13 03:45:00
Details:  TORNADO DESTROYED CHURCH,DAMAGED 37 HOUSES,LOUD ROAR,ROTATING CLOUD CONTAINING DEBRIS BEING SUCKED UP INTO CLD</description>
      <Point>
        <coordinates>149.1333,-35.2833,0</coordinates>
      </Point>
    </Placemark>
    <Placemark>
      <name>ANNA BAY (NELSON BAY)</name>
      <description>Date/Time: 1990-02-06 20:00:00
Details:  WS EST.P'LINES DOWN,HOUSE DEMOLISHED,OTHER ROOF DAMAGE,OVERTURNED CARAVAN.</description>
      <Point>
        <coordinates>152.0667,-32.7667,0</coordinates>
      </Point>
    </Placemark>
    <Placemark>
      <name>BINNAWAY (20KM N OF CBB)</name>
      <description>Date/Time: 1990-02-10 03:00:00
Details: LASTED 10MINS. 10KM PATH. F3? TREES UP TO 2 FT ACROSS SNAPPED.</description>
      <Point>
        <coordinates>149.3833,-31.5500,0</coordinates>
      </Point>
    </Placemark>
    <Placemark>
      <name>10KMS S OF FORBES</name>
      <description>Date/Time: 1991-12-21 02:00:00
Details:  TORNADO, CRITICAL INFORMATION NOT KNOWN.</description>
      <Point>
        <coordinates>148.0167,-33.3833,0</coordinates>
      </Point>
    </Placemark>
    <Placemark>
      <name>15 KM N OF COONABARABRAN</name>
      <description>Date/Time: 1992-02-06 09:30:00
Details: HOUSE DEMOLISHED. SOUNDED LIKE A TRUCK.</description>
      <Point>
        <coordinates>149.2833,-31.2667,0</coordinates>
      </Point>
    </Placemark>
    <Placemark>
      <name>LONGFORD/DULVAY</name>
      <description>Date/Time: 1992-08-08 07:00:00
Details: 150 TREES UPROOTED. OTHER PROPERTY DAMAGE. F0 TO F1 INTENSITY EST. BY SIMON LITTLEJOHNS.</description>
      <Point>
        <coordinates>151.1167,-30.7667,0</coordinates>
      </Point>
    </Placemark>
    <Placemark>
      <name>BALDBLAIR (12K E OF GUYRA)</name>
      <description>Date/Time: 1992-10-28 02:20:00
Details: NO DAMAGE REPORTED</description>
      <Point>
        <coordinates>151.6667,-30.2167,0</coordinates>
      </Point>
    </Placemark>
    <Placemark>
      <name>TIMBUMBURI</name>
      <description>Date/Time: 1992-11-02 06:40:00
Details: NO DAMAGE REPORTED.</description>
      <Point>
        <coordinates>150.9167,-31.1833,0</coordinates>
      </Point>
    </Placemark>
    <Placemark>
      <name>CANBERRA</name>
      <description>Date/Time: 1992-12-05 06:55:00
Details:  FUNNEL CLOUD NOT TOUCHING THE GROUND. LASTED 5 MINS, EXTENDED ABOUT 1/3 TO 1/2 WAY TO GROUND.</description>
      <Point>
        <coordinates>149.2167,-35.2833,0</coordinates>
      </Point>
    </Placemark>
    <Placemark>
      <name>WONGARBON (15K E DUBBO)</name>
      <description>Date/Time: 1992-12-07 04:30:00
Details: DARK BLUE TO BLACK THIN FUNNEL NOT TOUCHING GROUND</description>
      <Point>
        <coordinates>148.7500,-32.3333,0</coordinates>
      </Point>
    </Placemark>
    <Placemark>
      <name>MENDOORAN (GONOO STATE FOREST</name>
      <description>Date/Time: 1992-12-07 06:00:00
Details: WHITE TO DUSTY GREY FUNNEL DID NOT TOUCH GROUND.</description>
      <Point>
        <coordinates>149.1167,-31.8167,0</coordinates>
      </Point>
    </Placemark>
    <Placemark>
      <name>MOORE CREEK NNW OF TAMWORTH</name>
      <description>Date/Time: 1993-01-13 07:05:00
Details:  ROTAT CLOCKWISE. 40 - 50 FT WIDE,HEADED NE. CAR BLOWN OFF ROAD,HAYSHED DESTROYED,CHIMNEY OFF.</description>
      <Point>
        <coordinates>150.8834,-30.9834,0</coordinates>
      </Point>
    </Placemark>
    <Placemark>
      <name>WALLABADAH</name>
      <description>Date/Time: 1993-10-18 07:00:00
Details:  SHEDS DEMOLISHED, MACHINERY OVERTURNED. TRACK 200 TO 300 M WIDE AND A NUMBER OF KMS TO E IN LENGTH</description>
      <Point>
        <coordinates>150.8333,-31.5333,0</coordinates>
      </Point>
    </Placemark>
    <Placemark>
      <name>WALCHA</name>
      <description>Date/Time: 1993-10-18 08:00:00
Details: HOUSE DESTROYED</description>
      <Point>
        <coordinates>151.5833,-30.9834,0</coordinates>
      </Point>
    </Placemark>
    <Placemark>
      <name>TUCABIA</name>
      <description>Date/Time: 1993-11-20 10:20:00
Details: Event lasted 20 minutes. 8 Homes destroyed, 35 serious roof damage, 100 others damaged, 2 people injured. Estrimated damage $1 million. Horse was pierced to death by flying tree post. LASTED 20 MINS,8 HOMES DESTROYED, 35 HAD SERIOUS ROOF DAMAGE, 100 OTHERS DAMAGED. 2 PEOPLE INJURED. $1MILL DAM</description>
      <Point>
        <coordinates>153.3333,-29.5833,0</coordinates>
      </Point>
    </Placemark>
    <Placemark>
      <name>Broken Hill</name>
      <description>Date/Time: 1994-10-26 10:00:00
Details: Limbs screwed off trees, express train sound. Tornado at Topar (E of Broken Hill) and possibly at Eldee (NW of Broken Hill) damaged trees and a garden shed.</description>
      <Point>
        <coordinates>141.9920,-31.8830,0</coordinates>
      </Point>
    </Placemark>
    <Placemark>
      <name>Urana</name>
      <description>Date/Time: 1994-10-27 06:00:00
Details: Information passed on from Mike Bergen who spoke to the man who witnessed the funnel cloud while travelling on a bus to Wagga. The cell was about 15-20 km south of the coach. The cell was large, solitary and funnel cloud was distinct. The tornado was not observed to have touched-down&quot;. Tornado seen from bus by ex met observer on route to Wagga&quot;</description>
      <Point>
        <coordinates>146.3200,-35.3500,0</coordinates>
      </Point>
    </Placemark>
    <Placemark>
      <name>CHATSWOOD</name>
      <description>Date/Time: 1994-11-20 06:30:00
Details: VERY NARROW AND TALL, FAIRLY STRAIGHT FROM GROUND TO CLOUD LEVEL. OBSERVED HALFWAY BETWEEN MACQUARIE CENTRE AND BLUE MTS.  NO DAMAGE OBSERVED. ON SYDNEY HARBOUR AROUND SAME TIME TWO WATERSPOUTS WERE OBSERVED NEAT ROSE BAY. Severe thunderstorms caused  $20 million damage in Sydney metro area.  3 cm hail and damaging winds were reported. A possible tornado sighting between Kellyville and Chatswood, and waterspouts were observed on Sydney Harbour.</description>
      <Point>
        <coordinates>151.2167,-33.8683,0</coordinates>
      </Point>
    </Placemark>
    <Placemark>
      <name>CONDOBOLIN</name>
      <description>Date/Time: 1994-11-25 04:30:00
Details: 400 to 500 kg tree completely stripped and thrown 150 m. Sheds completely demolished, cars and a bus pushed off the road, the bus was rolled over. A sheep was thrown 1 km. Wild-life killed. A 2 ton cattle feeder was thrown 300 yards uphill.  The funnel cloud was black in colour. Tornado reported at 0430 UTC on 25/11/94 10 to 15 km east of Condobolin.</description>
      <Point>
        <coordinates>147.2800,-33.1700,0</coordinates>
      </Point>
    </Placemark>
    <Placemark>
      <name>Cobar</name>
      <description>Date/Time: 1995-01-28 05:30:00
Details: Cobar hit with tornado and large hail.</description>
      <Point>
        <coordinates>145.4800,-31.6800,0</coordinates>
      </Point>
    </Placemark>
    <Placemark>
      <name>Canberra</name>
      <description>Date/Time: 1995-01-28 09:00:00
Details: O'Brien calls it a 'willy willy'. Steve Malley from Canberra Met Office obseved the tornado also. O'Brien writes &quot;a band of uintense but brief rain and wind squalls crossed the region...at about 2145 [LT] rain and strong gusty E to SE developed to 60 km/hr. By 2000 [LT] the wind veered rapidly through 180 degrees with equally strong W/NW winds.&quot; Tornado in Canberra 28th January 1995</description>
      <Point>
        <coordinates>149.1200,-35.3200,0</coordinates>
      </Point>
    </Placemark>
    <Placemark>
      <name>MERIMBULA</name>
      <description>Date/Time: 1995-04-16 09:50:00
Details: 4.2 cm hail near Kangaloon at 0545 utc on 15/12/95.</description>
      <Point>
        <coordinates>149.9000,-36.9100,0</coordinates>
      </Point>
    </Placemark>
    <Placemark>
      <name>MOREE</name>
      <description>Date/Time: 1995-11-20 01:50:00
Details: No damage reported. Tornado sighting about 20 km east of Moree at 0150 UTC 0n 20/11/95.  No damage reported.</description>
      <Point>
        <coordinates>149.3800,-29.6200,0</coordinates>
      </Point>
    </Placemark>
    <Placemark>
      <name>5 km south of ROSEWOOD</name>
      <description>Date/Time: 1995-11-30 06:00:00
Details: TRACTORS TURNED UPSIDE DOWN, ROOFS OFF SHEDS AND HOMES. Wind gusts and 4.2 cm hail at Coolamon. A tornado and 4.2 cm hail 5 km south of Rosewood at around 0500 UTC on 30/11/95.</description>
      <Point>
        <coordinates>147.8700,-35.6700,0</coordinates>
      </Point>
    </Placemark>
    <Placemark>
      <name>Gilgandra</name>
      <description>Date/Time: 1996-09-29 03:30:00
Details:  Tornado at Bearbung near Gilgandra at 0330UTC on 29/9/96. Destroyed trees and fences, moved cars 200m, moved a full silo off foundations, unroofed a house.</description>
      <Point>
        <coordinates>148.6700,-31.7200,0</coordinates>
      </Point>
    </Placemark>
    <Placemark>
      <name>ELONG ELONG</name>
      <description>Date/Time: 1996-09-29 03:30:00
Details: Ironbark trees 600mm dia broken and pulled out of ground, destroyed a house and several sheds. Extensive damage to fences, moved a 4 tonne truck several lengths. Loud roaring noise heard as well as a deep humming sound. Tornado with 4 cm hail at Elong Elong at 0330 UTC on 29/9/1996. Tornado also reported from Bearbung near Gilgandra and 4 cm hail was reported from Eumungerie.</description>
      <Point>
        <coordinates>149.0300,-32.1200,0</coordinates>
      </Point>
    </Placemark>
    <Placemark>
      <name>BUNDELLA</name>
      <description>Date/Time: 1996-09-29 06:00:00
Details: Woolshed and other buildings damaged. Trees felled. Tornado at Bundella at 0600 UTC on 29/9/1996.</description>
      <Point>
        <coordinates>148.9000,-31.5000,0</coordinates>
      </Point>
    </Placemark>
    <Placemark>
      <name>FINGAL BAY</name>
      <description>Date/Time: 1998-06-30 18:00:00
Details: 39 caravans overturned or damaged at local caravan park (6 destroyed), 26 units damaged in retirement village, 11 homes suffered roof damage. Tornado (F1) with gusts to 65 kt reported from Fingal Bay at 1800 UTC on  30/6/1998.</description>
      <Point>
        <coordinates>152.1700,-32.7500,0</coordinates>
      </Point>
    </Placemark>
    <Placemark>
      <name>Willow Tree</name>
      <description>Date/Time: 1998-07-27 09:30:00
Details: One large 4wd rolled over another car ended up ontop of another. A weatherboard house was severely damaged. A baby was sucked out of the house but fortunately was uninjured. Tornado ranked F2 reported from Swinging Ridges Rd (12 km SW of Willow Tree) at 0930 UTC on 27/7/1998.</description>
      <Point>
        <coordinates>150.7000,-31.7500,0</coordinates>
      </Point>
    </Placemark>
    <Placemark>
      <name>GREYSTANES</name>
      <description>Date/Time: 2000-11-03 05:00:00
Details: 3 tornado tracks were observed during damage survey. A tornadic thunderstorm moved through the Sydney Metropolitan Area over the afternoon/early evening of 3/11/2000. Around 300 jobs were attended to by SES</description>
      <Point>
        <coordinates>150.5600,-33.4900,0</coordinates>
      </Point>
    </Placemark>
    <Placemark>
      <name>NIMBIN</name>
      <description>Date/Time: 2000-11-05 05:40:00
Details: Several homes lost roofs, whole (large) trees uprooted and other very localised damage reported. Tornado as well as 6cm hail reported from Uki (E side of Mt Warning) at 0625 UTC on 5/11/2000. Another tornado earlier at Nimbin at 0540 UTC on 5/11/2000.</description>
      <Point>
        <coordinates>153.2900,-28.5500,0</coordinates>
      </Point>
    </Placemark>
    <Placemark>
      <name>UKI</name>
      <description>Date/Time: 2000-11-05 06:25:00
Details: 40 foot palms thrown, goods blown out of house. Accompanied by shriek, 4-6cm hail and toad fall. Narrow swathe. Tornado as well as 6cm hail reported from Uki (E side of Mt Warning) at 0625 UTC on 5/11/2000. Another tornado earlier at Nimbin at 0540 UTC on 5/11/2000.</description>
      <Point>
        <coordinates>153.3000,-28.4000,0</coordinates>
      </Point>
    </Placemark>
    <Placemark>
      <name>CAREEL BAY</name>
      <description>Date/Time: 2001-11-18 02:35:00
Details: Time uncertain - inferred from radar. Tornado (F0) at Careel Bay (near Avalon) at about 0235UTC on 18/11/2001.</description>
      <Point>
        <coordinates>151.3200,-33.6100,0</coordinates>
      </Point>
    </Placemark>
    <Placemark>
      <name>Leppington</name>
      <description>Date/Time: 2001-11-18 05:00:00
Details: Tornado lifted garden shed at Leppington (Sydney) at 0500UTC on 18/11/2001.</description>
      <Point>
        <coordinates>150.8000,-33.9700,0</coordinates>
      </Point>
    </Placemark>
    <Placemark>
      <name>Cronulla</name>
      <description>Date/Time: 2001-11-18 05:15:00
Details: Tornado overturned moored yachts at Cronulla at 0515UTC on 18/11/2001.</description>
      <Point>
        <coordinates>151.1500,-34.0500,0</coordinates>
      </Point>
    </Placemark>